{
"type": "FeatureCollection",
"features": [
{ "type": "Feature", "properties": { "nom": "RUE CHAVANNE", "numero_voie": "1", "arrondissement": "1", "longueur": "10", "gid": "1" }, "geometry": { "type": "Point", "coordinates": [ 4.832883979214541, 45.765527579794664 ] } },
{ "type": "Feature", "properties": { "nom": "RUE CHAVANNE", "numero_voie": "5", "arrondissement": "1", "longueur": "5", "gid": "2" }, "geometry": { "type": "Point", "coordinates": [ 4.83236290659552, 45.765317255231601 ] } },
{ "type": "Feature", "properties": { "nom": "RUE COYSEVOX", "numero_voie": "4", "arrondissement": "1", "longueur": "5", "gid": "3" }, "geometry": { "type": "Point", "coordinates": [ 4.834886630599285, 45.769757547074839 ] } },
{ "type": "Feature", "properties": { "nom": "RUE DE LA MARTINIERE", "numero_voie": "18", "arrondissement": "1", "longueur": "5", "gid": "4" }, "geometry": { "type": "Point", "coordinates": [ 4.829493559690992, 45.768170574941756 ] } },
{ "type": "Feature", "properties": { "nom": "RUE DU GARET", "numero_voie": "13", "arrondissement": "1", "longueur": "15", "gid": "5" }, "geometry": { "type": "Point", "coordinates": [ 4.836861281845556, 45.766593565397841 ] } },
{ "type": "Feature", "properties": { "nom": "RUE JOSEPH SERLIN", "numero_voie": "18", "arrondissement": "1", "longueur": "15", "gid": "6" }, "geometry": { "type": "Point", "coordinates": [ 4.836771536812646, 45.767587102502191 ] } },
{ "type": "Feature", "properties": { "nom": "PLACE DU GRIFFON", "numero_voie": "1", "arrondissement": "1", "longueur": "5", "gid": "7" }, "geometry": { "type": "Point", "coordinates": [ 4.836040922110135, 45.769162634832213 ] } },
{ "type": "Feature", "properties": { "nom": "RUE IMBERT COLOMES", "numero_voie": "24", "arrondissement": "1", "longueur": "5", "gid": "8" }, "geometry": { "type": "Point", "coordinates": [ 4.834675944487148, 45.771498263555891 ] } },
{ "type": "Feature", "properties": { "nom": "RUE LANTERNE", "numero_voie": "8", "arrondissement": "1", "longueur": "5", "gid": "9" }, "geometry": { "type": "Point", "coordinates": [ 4.831767099653923, 45.766689811819056 ] } },
{ "type": "Feature", "properties": { "nom": "RUE LONGUE", "numero_voie": "4", "arrondissement": "1", "longueur": "5", "gid": "10" }, "geometry": { "type": "Point", "coordinates": [ 4.831911608275825, 45.765225480477483 ] } },
{ "type": "Feature", "properties": { "nom": "PLACE MEISSONIER", "numero_voie": "1", "arrondissement": "1", "longueur": "5", "gid": "11" }, "geometry": { "type": "Point", "coordinates": [ 4.832630620696464, 45.766294198252673 ] } },
{ "type": "Feature", "properties": { "nom": "RUE MULET", "numero_voie": "8", "arrondissement": "1", "longueur": "5", "gid": "12" }, "geometry": { "type": "Point", "coordinates": [ 4.835190384037219, 45.765685952164063 ] } },
{ "type": "Feature", "properties": { "nom": "QUAI DE LA PECHERIE", "numero_voie": "11", "arrondissement": "1", "longueur": "6", "gid": "13" }, "geometry": { "type": "Point", "coordinates": [ 4.831372841032208, 45.765443488852554 ] } },
{ "type": "Feature", "properties": { "nom": "RUE PIERRE BLANC", "numero_voie": "12", "arrondissement": "1", "longueur": "5", "gid": "14" }, "geometry": { "type": "Point", "coordinates": [ 4.827578073192029, 45.770775128593797 ] } },
{ "type": "Feature", "properties": { "nom": "PLACE SAINT NIZIER", "numero_voie": "1", "arrondissement": "1", "longueur": "5", "gid": "15" }, "geometry": { "type": "Point", "coordinates": [ 4.832863083, 45.764857666800943 ] } },
{ "type": "Feature", "properties": { "nom": "PLACE SATHONAY", "numero_voie": "3", "arrondissement": "1", "longueur": "5", "gid": "16" }, "geometry": { "type": "Point", "coordinates": [ 4.830672145731461, 45.769292961161462 ] } },
{ "type": "Feature", "properties": { "nom": "RUE SERGENT BLANDAN", "numero_voie": "34", "arrondissement": "1", "longueur": "5", "gid": "17" }, "geometry": { "type": "Point", "coordinates": [ 4.830277850370329, 45.76875857674704 ] } },
{ "type": "Feature", "properties": { "nom": "RUE DES TABLES CLAUDIENNES", "numero_voie": "41", "arrondissement": "1", "longueur": "5", "gid": "18" }, "geometry": { "type": "Point", "coordinates": [ 4.833111486714265, 45.770953469224722 ] } },
{ "type": "Feature", "properties": { "nom": "RUE DU BAT D ARGENT", "numero_voie": "2", "arrondissement": "1", "longueur": "6", "gid": "19" }, "geometry": { "type": "Point", "coordinates": [ 4.834567874180186, 45.766055791686888 ] } },
{ "type": "Feature", "properties": { "nom": "PLACE COLBERT", "numero_voie": "6", "arrondissement": "1", "longueur": "5", "gid": "20" }, "geometry": { "type": "Point", "coordinates": [ 4.834301276081431, 45.772616773664673 ] } },
{ "type": "Feature", "properties": { "nom": "RUE DU BAT D ARGENT", "numero_voie": "14", "arrondissement": "1", "longueur": "10", "gid": "21" }, "geometry": { "type": "Point", "coordinates": [ 4.835714685187883, 45.766052343737364 ] } },
{ "type": "Feature", "properties": { "nom": "IMPASSE DE LA VIEILLE", "numero_voie": "17", "arrondissement": "1", "longueur": "3", "gid": "22" }, "geometry": { "type": "Point", "coordinates": [ 4.826937507709979, 45.769027179058277 ] } },
{ "type": "Feature", "properties": { "nom": "PLACE ROUVILLE", "numero_voie": "2", "arrondissement": "1", "longueur": "8", "gid": "23" }, "geometry": { "type": "Point", "coordinates": [ 4.824909214809253, 45.769570382964581 ] } },
{ "type": "Feature", "properties": { "nom": "RUE PRESIDENT EDOUARD HERRIOT", "numero_voie": "38", "arrondissement": "1", "longueur": "7", "gid": "24" }, "geometry": { "type": "Point", "coordinates": [ 4.834283174391468, 45.76551174244166 ] } },
{ "type": "Feature", "properties": { "nom": "RUE DE LA PLATIERE", "numero_voie": "6", "arrondissement": "1", "longueur": "6", "gid": "25" }, "geometry": { "type": "Point", "coordinates": [ 4.831318850774892, 45.765944885196973 ] } },
{ "type": "Feature", "properties": { "nom": "PLACE TOLOZAN", "numero_voie": "19", "arrondissement": "1", "longueur": "10", "gid": "26" }, "geometry": { "type": "Point", "coordinates": [ 4.837636139075958, 45.76922310961011 ] } },
{ "type": "Feature", "properties": { "nom": "QUAI ANDRE LASSAGNE", "numero_voie": "8", "arrondissement": "1", "longueur": "5", "gid": "27" }, "geometry": { "type": "Point", "coordinates": [ 4.837854532323552, 45.77135040836351 ] } },
{ "type": "Feature", "properties": { "nom": "PLACE SAINT NIZIER", "numero_voie": "1", "arrondissement": "1", "longueur": "5", "gid": "28" }, "geometry": { "type": "Point", "coordinates": [ 4.832860525044381, 45.764509164801972 ] } },
{ "type": "Feature", "properties": { "nom": "RUE BURDEAU", "numero_voie": "17", "arrondissement": "1", "longueur": "10", "gid": "29" }, "geometry": { "type": "Point", "coordinates": [ 4.832800578515605, 45.770400643983834 ] } },
{ "type": "Feature", "properties": { "nom": "RUE DES PIERRES PLANTEES", "numero_voie": "2", "arrondissement": "1", "longueur": "10", "gid": "30" }, "geometry": { "type": "Point", "coordinates": [ 4.832159874271929, 45.774025404336491 ] } },
{ "type": "Feature", "properties": { "nom": "RUE THIMONNIER", "numero_voie": "2", "arrondissement": "1", "longueur": "10", "gid": "31" }, "geometry": { "type": "Point", "coordinates": [ 4.829142572109343, 45.767544784913341 ] } },
{ "type": "Feature", "properties": { "nom": "RUE LONGUE", "numero_voie": "23", "arrondissement": "1", "longueur": "10", "gid": "32" }, "geometry": { "type": "Point", "coordinates": [ 4.834169936458535, 45.765417197424554 ] } },
{ "type": "Feature", "properties": { "nom": "RUE VALFENIERE", "numero_voie": "2", "arrondissement": "1", "longueur": "10", "gid": "33" }, "geometry": { "type": "Point", "coordinates": [ 4.832331741760475, 45.766288688477886 ] } },
{ "type": "Feature", "properties": { "nom": "RUE LOUIS VITET", "numero_voie": "3", "arrondissement": "1", "longueur": "8", "gid": "34" }, "geometry": { "type": "Point", "coordinates": [ 4.830842428899969, 45.768529666504605 ] } },
{ "type": "Feature", "properties": { "nom": "IMPASSE TAVERNIER", "numero_voie": "14", "arrondissement": "1", "longueur": "5", "gid": "35" }, "geometry": { "type": "Point", "coordinates": [ 4.827412823433692, 45.769055396142441 ] } },
{ "type": "Feature", "properties": { "nom": "RUE DES CAPUCINS", "numero_voie": "14", "arrondissement": "1", "longueur": "10", "gid": "36" }, "geometry": { "type": "Point", "coordinates": [ 4.83390283493067, 45.769281558901298 ] } },
{ "type": "Feature", "properties": { "nom": "RUE DE VAUZELLES", "numero_voie": "6", "arrondissement": "1", "longueur": "10", "gid": "37" }, "geometry": { "type": "Point", "coordinates": [ 4.827299913144681, 45.77353527662099 ] } },
{ "type": "Feature", "properties": { "nom": "RUE COUSTOU", "numero_voie": "2", "arrondissement": "1", "longueur": "10", "gid": "38" }, "geometry": { "type": "Point", "coordinates": [ 4.835019475023339, 45.769441382758501 ] } },
{ "type": "Feature", "properties": { "nom": "RUE LEMOT", "numero_voie": "11", "arrondissement": "1", "longueur": "3", "gid": "39" }, "geometry": { "type": "Point", "coordinates": [ 4.834269703920199, 45.77254978477135 ] } },
{ "type": "Feature", "properties": { "nom": "RUE DE FLESSELLES", "numero_voie": "4", "arrondissement": "1", "longueur": "5", "gid": "40" }, "geometry": { "type": "Point", "coordinates": [ 4.826622985660665, 45.77172896904446 ] } },
{ "type": "Feature", "properties": { "nom": "COURS CHARLEMAGNE", "numero_voie": "102", "arrondissement": "2", "longueur": "2", "gid": "41" }, "geometry": { "type": "Point", "coordinates": [ 4.820112298908613, 45.742062026665423 ] } },
{ "type": "Feature", "properties": { "nom": "RUE CLAUDIUS COLLONGE", "numero_voie": "21", "arrondissement": "2", "longueur": "5", "gid": "42" }, "geometry": { "type": "Point", "coordinates": [ 4.820715322039544, 45.747634153579504 ] } },
{ "type": "Feature", "properties": { "nom": "RUE FRANKLIN", "numero_voie": "13", "arrondissement": "2", "longueur": "5", "gid": "43" }, "geometry": { "type": "Point", "coordinates": [ 4.826857164921877, 45.753096911997105 ] } },
{ "type": "Feature", "properties": { "nom": "RUE D AUVERGNE", "numero_voie": "1", "arrondissement": "2", "longueur": "6", "gid": "44" }, "geometry": { "type": "Point", "coordinates": [ 4.829752105021589, 45.754679870986678 ] } },
{ "type": "Feature", "properties": { "nom": "RUE HENRI IV", "numero_voie": "5", "arrondissement": "2", "longueur": "6", "gid": "45" }, "geometry": { "type": "Point", "coordinates": [ 4.828050035385783, 45.752621345780625 ] } },
{ "type": "Feature", "properties": { "nom": "RUE DE LA BARRE", "numero_voie": "7", "arrondissement": "2", "longueur": "20", "gid": "46" }, "geometry": { "type": "Point", "coordinates": [ 4.835738196124321, 45.757579192866814 ] } },
{ "type": "Feature", "properties": { "nom": "RUE TONY TOLLET", "numero_voie": "10", "arrondissement": "2", "longueur": "5", "gid": "47" }, "geometry": { "type": "Point", "coordinates": [ 4.828850175486953, 45.756222064702193 ] } },
{ "type": "Feature", "properties": { "nom": "RUE LAURENCIN", "numero_voie": "5", "arrondissement": "2", "longueur": "5", "gid": "48" }, "geometry": { "type": "Point", "coordinates": [ 4.832172312827623, 45.752962477724971 ] } },
{ "type": "Feature", "properties": { "nom": "RUE LAURENCIN", "numero_voie": "7", "arrondissement": "2", "longueur": "5", "gid": "49" }, "geometry": { "type": "Point", "coordinates": [ 4.83233515939706, 45.752906010177526 ] } },
{ "type": "Feature", "properties": { "nom": "RUE DES REMPARTS D AINAY", "numero_voie": "32", "arrondissement": "2", "longueur": "5", "gid": "50" }, "geometry": { "type": "Point", "coordinates": [ 4.831315881807478, 45.752624486556677 ] } },
{ "type": "Feature", "properties": { "nom": "RUE DENUZIERE", "numero_voie": "1", "arrondissement": "2", "longueur": "5", "gid": "51" }, "geometry": { "type": "Point", "coordinates": [ 4.822077771966002, 45.747495975256584 ] } },
{ "type": "Feature", "properties": { "nom": "RUE JARENTE", "numero_voie": "2", "arrondissement": "2", "longueur": "5", "gid": "52" }, "geometry": { "type": "Point", "coordinates": [ 4.826793998288257, 45.754608301512754 ] } },
{ "type": "Feature", "properties": { "nom": "RUE LAURENCIN", "numero_voie": "2", "arrondissement": "2", "longueur": "5", "gid": "53" }, "geometry": { "type": "Point", "coordinates": [ 4.831798916554463, 45.753029553837422 ] } },
{ "type": "Feature", "properties": { "nom": "RUE PRESIDENT EDOUARD HERRIOT", "numero_voie": "56", "arrondissement": "2", "longueur": "5", "gid": "54" }, "geometry": { "type": "Point", "coordinates": [ 4.83414492297143, 45.763229242857825 ] } },
{ "type": "Feature", "properties": { "nom": "RUE DE LA CHARITE", "numero_voie": "7", "arrondissement": "2", "longueur": "5", "gid": "55" }, "geometry": { "type": "Point", "coordinates": [ 4.83244466126428, 45.754487250132023 ] } },
{ "type": "Feature", "properties": { "nom": "PLACE BELLECOUR", "numero_voie": "30", "arrondissement": "2", "longueur": "2", "gid": "56" }, "geometry": { "type": "Point", "coordinates": [ 4.829941477638793, 45.757060882085348 ] } },
{ "type": "Feature", "properties": { "nom": "RUE DE CONDE", "numero_voie": "34", "arrondissement": "2", "longueur": "5", "gid": "57" }, "geometry": { "type": "Point", "coordinates": [ 4.830398481864113, 45.751033913744337 ] } },
{ "type": "Feature", "properties": { "nom": "RUE DE FLEURIEU", "numero_voie": "10", "arrondissement": "2", "longueur": "5", "gid": "58" }, "geometry": { "type": "Point", "coordinates": [ 4.832561349567845, 45.753396952820665 ] } },
{ "type": "Feature", "properties": { "nom": "RUE JARENTE", "numero_voie": "12", "arrondissement": "2", "longueur": "5", "gid": "59" }, "geometry": { "type": "Point", "coordinates": [ 4.828515259980602, 45.754053607523716 ] } },
{ "type": "Feature", "properties": { "nom": "RUE DU BELIER", "numero_voie": "1", "arrondissement": "2", "longueur": "3", "gid": "60" }, "geometry": { "type": "Point", "coordinates": [ 4.827461149574782, 45.748626610487463 ] } },
{ "type": "Feature", "properties": { "nom": "RUE PRESIDENT EDOUARD HERRIOT", "numero_voie": "106", "arrondissement": "2", "longueur": "8", "gid": "61" }, "geometry": { "type": "Point", "coordinates": [ 4.83384461989392, 45.758324159015224 ] } },
{ "type": "Feature", "properties": { "nom": "RUE DE LA CHARITE", "numero_voie": "19", "arrondissement": "2", "longueur": "10", "gid": "62" }, "geometry": { "type": "Point", "coordinates": [ 4.831783142739264, 45.753207660772802 ] } },
{ "type": "Feature", "properties": { "nom": "COURS BAYARD", "numero_voie": "34", "arrondissement": "2", "longueur": "5", "gid": "63" }, "geometry": { "type": "Point", "coordinates": [ 4.824658079991787, 45.742408658600155 ] } },
{ "type": "Feature", "properties": { "nom": "RUE BOURGELAT", "numero_voie": "12", "arrondissement": "2", "longueur": "10", "gid": "64" }, "geometry": { "type": "Point", "coordinates": [ 4.826905625022992, 45.753442291711416 ] } },
{ "type": "Feature", "properties": { "nom": "RUE DELANDINE", "numero_voie": "19", "arrondissement": "2", "longueur": "5", "gid": "65" }, "geometry": { "type": "Point", "coordinates": [ 4.826603356103794, 45.745923164323678 ] } },
{ "type": "Feature", "properties": { "nom": "COURS DE VERDUN PERRACHE", "numero_voie": "32", "arrondissement": "2", "longueur": "5", "gid": "66" }, "geometry": { "type": "Point", "coordinates": [ 4.828555893914026, 45.74839877433255 ] } },
{ "type": "Feature", "properties": { "nom": "RUE PRESIDENT CARNOT", "numero_voie": "4", "arrondissement": "2", "longueur": "5", "gid": "67" }, "geometry": { "type": "Point", "coordinates": [ 4.837133696719455, 45.762372129679015 ] } },
{ "type": "Feature", "properties": { "nom": "RUE SMITH", "numero_voie": "56", "arrondissement": "2", "longueur": "10", "gid": "68" }, "geometry": { "type": "Point", "coordinates": [ 4.819608241524427, 45.73952684147519 ] } },
{ "type": "Feature", "properties": { "nom": "RUE FRANKLIN", "numero_voie": "58", "arrondissement": "2", "longueur": "10", "gid": "69" }, "geometry": { "type": "Point", "coordinates": [ 4.832218092170367, 45.75153661616698 ] } },
{ "type": "Feature", "properties": { "nom": "RUE FRANCOIS DAUPHIIN", "numero_voie": "13", "arrondissement": "2", "longueur": "3", "gid": "70" }, "geometry": { "type": "Point", "coordinates": [ 4.832483998739119, 45.755474485534798 ] } },
{ "type": "Feature", "properties": { "nom": "RUE SMITH", "numero_voie": "56", "arrondissement": "2", "longueur": "5", "gid": "71" }, "geometry": { "type": "Point", "coordinates": [ 4.820295621423432, 45.740336386336843 ] } },
{ "type": "Feature", "properties": { "nom": "PLACE CARNOT", "numero_voie": "8", "arrondissement": "2", "longueur": "5", "gid": "72" }, "geometry": { "type": "Point", "coordinates": [ 4.829026096767072, 45.751206569092055 ] } },
{ "type": "Feature", "properties": { "nom": "RUE GROLEE", "numero_voie": "8", "arrondissement": "2", "longueur": "5", "gid": "73" }, "geometry": { "type": "Point", "coordinates": [ 4.836883587054363, 45.761605916058571 ] } },
{ "type": "Feature", "properties": { "nom": "RUE SALA", "numero_voie": "2", "arrondissement": "2", "longueur": "6", "gid": "74" }, "geometry": { "type": "Point", "coordinates": [ 4.827125376287983, 45.756701532892428 ] } },
{ "type": "Feature", "properties": { "nom": "RUE AUGUSTE COMTE", "numero_voie": "15", "arrondissement": "2", "longueur": "6", "gid": "75" }, "geometry": { "type": "Point", "coordinates": [ 4.831276749123073, 45.754968184650266 ] } },
{ "type": "Feature", "properties": { "nom": "RUE DE LA CHARITE", "numero_voie": "57", "arrondissement": "2", "longueur": "5", "gid": "76" }, "geometry": { "type": "Point", "coordinates": [ 4.830241849525565, 45.749955830723451 ] } },
{ "type": "Feature", "properties": { "nom": "RUE DE CONDE", "numero_voie": "13", "arrondissement": "2", "longueur": "6", "gid": "77" }, "geometry": { "type": "Point", "coordinates": [ 4.826703711247808, 45.752112271827407 ] } },
{ "type": "Feature", "properties": { "nom": "QUAI MARECHAL JOFFRE", "numero_voie": "4", "arrondissement": "2", "longueur": "3", "gid": "78" }, "geometry": { "type": "Point", "coordinates": [ 4.825143404866751, 45.753455062449007 ] } },
{ "type": "Feature", "properties": { "nom": "RUE THOMASSIN", "numero_voie": "38", "arrondissement": "2", "longueur": "5", "gid": "79" }, "geometry": { "type": "Point", "coordinates": [ 4.83735878573241, 45.76166234422076 ] } },
{ "type": "Feature", "properties": { "nom": "RUE SAINTE HELENE", "numero_voie": "12", "arrondissement": "2", "longueur": "5", "gid": "80" }, "geometry": { "type": "Point", "coordinates": [ 4.829026657189401, 45.755036726736812 ] } },
{ "type": "Feature", "properties": { "nom": "QUAI SAINT ANTOINE", "numero_voie": "37", "arrondissement": "2", "longueur": "5", "gid": "81" }, "geometry": { "type": "Point", "coordinates": [ 4.831601124305377, 45.761493647197995 ] } },
{ "type": "Feature", "properties": { "nom": "QUAI DOCTEUR GAILLETON", "numero_voie": "32", "arrondissement": "2", "longueur": "10", "gid": "82" }, "geometry": { "type": "Point", "coordinates": [ 4.832832707244631, 45.752105971585387 ] } },
{ "type": "Feature", "properties": { "nom": "RUE AUGUSTE COMTE", "numero_voie": "5", "arrondissement": "2", "longueur": "5", "gid": "83" }, "geometry": { "type": "Point", "coordinates": [ 4.831867211746924, 45.756067025304553 ] } },
{ "type": "Feature", "properties": { "nom": "RUE AUGUSTE COMTE", "numero_voie": "37", "arrondissement": "2", "longueur": "5", "gid": "84" }, "geometry": { "type": "Point", "coordinates": [ 4.830241666311876, 45.753038762779383 ] } },
{ "type": "Feature", "properties": { "nom": "RUE DE LA CHARITE", "numero_voie": "53", "arrondissement": "2", "longueur": "5", "gid": "85" }, "geometry": { "type": "Point", "coordinates": [ 4.830357913788776, 45.750440234881417 ] } },
{ "type": "Feature", "properties": { "nom": "RUE DE LA POULAILLERIE", "numero_voie": "15", "arrondissement": "2", "longueur": "10", "gid": "86" }, "geometry": { "type": "Point", "coordinates": [ 4.835610986808853, 45.764142731065483 ] } },
{ "type": "Feature", "properties": { "nom": "PLACE ANTOINE RIVOIRE", "numero_voie": "2", "arrondissement": "2", "longueur": "8", "gid": "87" }, "geometry": { "type": "Point", "coordinates": [ 4.834372616995879, 45.764649993480241 ] } },
{ "type": "Feature", "properties": { "nom": "RUE DU PLAT", "numero_voie": "10", "arrondissement": "2", "longueur": "5", "gid": "88" }, "geometry": { "type": "Point", "coordinates": [ 4.829390749507679, 45.758250582155782 ] } },
{ "type": "Feature", "properties": { "nom": "RUE FRANKLIN", "numero_voie": "48", "arrondissement": "2", "longueur": "5", "gid": "89" }, "geometry": { "type": "Point", "coordinates": [ 4.830902914889187, 45.751904551695908 ] } },
{ "type": "Feature", "properties": { "nom": "RUE FRANKLIN", "numero_voie": "36", "arrondissement": "2", "longueur": "5", "gid": "90" }, "geometry": { "type": "Point", "coordinates": [ 4.829616935969243, 45.752257214791008 ] } },
{ "type": "Feature", "properties": { "nom": "RUE FRANKLIN", "numero_voie": "29", "arrondissement": "2", "longueur": "5", "gid": "91" }, "geometry": { "type": "Point", "coordinates": [ 4.828701797328503, 45.752590437867262 ] } },
{ "type": "Feature", "properties": { "nom": "RUE MAZARD", "numero_voie": "9", "arrondissement": "2", "longueur": "5", "gid": "92" }, "geometry": { "type": "Point", "coordinates": [ 4.83142786663247, 45.750253874347955 ] } },
{ "type": "Feature", "properties": { "nom": "RUE SAINTE HELENE", "numero_voie": "24", "arrondissement": "2", "longueur": "5", "gid": "93" }, "geometry": { "type": "Point", "coordinates": [ 4.830466998782702, 45.754477688410695 ] } },
{ "type": "Feature", "properties": { "nom": "RUE DENUZIERE", "numero_voie": "60", "arrondissement": "2", "longueur": "5", "gid": "94" }, "geometry": { "type": "Point", "coordinates": [ 4.817892836697236, 45.742712604365316 ] } },
{ "type": "Feature", "properties": { "nom": "RUE TUPIN", "numero_voie": "28", "arrondissement": "2", "longueur": "10", "gid": "95" }, "geometry": { "type": "Point", "coordinates": [ 4.834605672601345, 45.762915012083127 ] } },
{ "type": "Feature", "properties": { "nom": "RUE FRANCOIS DAUPHIN", "numero_voie": "13", "arrondissement": "2", "longueur": "3", "gid": "96" }, "geometry": { "type": "Point", "coordinates": [ 4.832635828268814, 45.755411203793557 ] } },
{ "type": "Feature", "properties": { "nom": "PLACE ANTOINE VOLLON", "numero_voie": "9", "arrondissement": "2", "longueur": "3", "gid": "97" }, "geometry": { "type": "Point", "coordinates": [ 4.827167571542082, 45.755687569454828 ] } },
{ "type": "Feature", "properties": { "nom": "RUE VAUBECOUR", "numero_voie": "3", "arrondissement": "2", "longueur": "5", "gid": "98" }, "geometry": { "type": "Point", "coordinates": [ 4.827119649239511, 45.755213449789586 ] } },
{ "type": "Feature", "properties": { "nom": "RUE DE LA BOURSE", "numero_voie": "31", "arrondissement": "2", "longueur": "5", "gid": "99" }, "geometry": { "type": "Point", "coordinates": [ 4.836931346890456, 45.765080578770991 ] } },
{ "type": "Feature", "properties": { "nom": "RUE DE LA BOURSE", "numero_voie": "12", "arrondissement": "2", "longueur": "2", "gid": "100" }, "geometry": { "type": "Point", "coordinates": [ 4.836809804083199, 45.764623798888174 ] } },
{ "type": "Feature", "properties": { "nom": "RUE SIMON MAUPIN", "numero_voie": "9", "arrondissement": "2", "longueur": "5", "gid": "101" }, "geometry": { "type": "Point", "coordinates": [ 4.834404273257863, 45.758690952412529 ] } },
{ "type": "Feature", "properties": { "nom": "PLACE BELLECOUR", "numero_voie": "26", "arrondissement": "2", "longueur": "5", "gid": "102" }, "geometry": { "type": "Point", "coordinates": [ 4.830775198924091, 45.756902090022962 ] } },
{ "type": "Feature", "properties": { "nom": "RUE D ENGHIEN", "numero_voie": "16t", "arrondissement": "2", "longueur": "5", "gid": "103" }, "geometry": { "type": "Point", "coordinates": [ 4.826145430755263, 45.751827746645326 ] } },
{ "type": "Feature", "properties": { "nom": "RUE VAUBECOUR", "numero_voie": "23", "arrondissement": "2", "longueur": "5", "gid": "104" }, "geometry": { "type": "Point", "coordinates": [ 4.826176226160338, 45.753871993436761 ] } },
{ "type": "Feature", "properties": { "nom": "QUAI GAILLETON", "numero_voie": "41", "arrondissement": "2", "longueur": "3", "gid": "105" }, "geometry": { "type": "Point", "coordinates": [ 4.831764230395474, 45.750560916457466 ] } },
{ "type": "Feature", "properties": { "nom": "RUE ANTOINE DE SAINT EXUPERY", "numero_voie": "4", "arrondissement": "2", "longueur": "2", "gid": "106" }, "geometry": { "type": "Point", "coordinates": [ 4.828677527537588, 45.75745864877284 ] } },
{ "type": "Feature", "properties": { "nom": "RUE DES REMPARTS D AINAY", "numero_voie": "1", "arrondissement": "2", "longueur": "5", "gid": "107" }, "geometry": { "type": "Point", "coordinates": [ 4.827448278011076, 45.753900688896863 ] } },
{ "type": "Feature", "properties": { "nom": "RUE DES REMPARTS D AINAY", "numero_voie": "18", "arrondissement": "2", "longueur": "5", "gid": "108" }, "geometry": { "type": "Point", "coordinates": [ 4.829884512375484, 45.753017846344356 ] } },
{ "type": "Feature", "properties": { "nom": "RUE DE LA CHARITE", "numero_voie": "27", "arrondissement": "2", "longueur": "5", "gid": "109" }, "geometry": { "type": "Point", "coordinates": [ 4.831438060311179, 45.752541483586128 ] } },
{ "type": "Feature", "properties": { "nom": "RUE BELLECOMBE", "numero_voie": "22", "arrondissement": "2", "longueur": "6", "gid": "110" }, "geometry": { "type": "Point", "coordinates": [ 4.835576296286182, 45.758160260941708 ] } },
{ "type": "Feature", "properties": { "nom": "RUE DES ARCHERS", "numero_voie": "16", "arrondissement": "2", "longueur": "5", "gid": "111" }, "geometry": { "type": "Point", "coordinates": [ 4.834538728051115, 45.759291909429116 ] } },
{ "type": "Feature", "properties": { "nom": "RUE FERRANDIERE", "numero_voie": "24", "arrondissement": "2", "longueur": "10", "gid": "112" }, "geometry": { "type": "Point", "coordinates": [ 4.835473610852893, 45.762093643425992 ] } },
{ "type": "Feature", "properties": { "nom": "Rue Childebert", "numero_voie": "2", "arrondissement": "2", "longueur": "3", "gid": "113" }, "geometry": { "type": "Point", "coordinates": [ 4.835057737276124, 45.760222661586859 ] } },
{ "type": "Feature", "properties": { "nom": "RUE D AMBOISE", "numero_voie": "2", "arrondissement": "2", "longueur": "2", "gid": "114" }, "geometry": { "type": "Point", "coordinates": [ 4.830564285012811, 45.759718410943279 ] } },
{ "type": "Feature", "properties": { "nom": "RUE DE SAVOIE", "numero_voie": "3", "arrondissement": "2", "longueur": "2", "gid": "115" }, "geometry": { "type": "Point", "coordinates": [ 4.831488575524096, 45.76044010021775 ] } },
{ "type": "Feature", "properties": { "nom": "RUE DE BREST", "numero_voie": "41", "arrondissement": "2", "longueur": "10", "gid": "116" }, "geometry": { "type": "Point", "coordinates": [ 4.833452716906764, 45.761220291287948 ] } },
{ "type": "Feature", "properties": { "nom": "QUAI RAMBAUD", "numero_voie": "5", "arrondissement": "2", "longueur": "3", "gid": "117" }, "geometry": { "type": "Point", "coordinates": [ 4.821420475984244, 45.749491837046264 ] } },
{ "type": "Feature", "properties": { "nom": "RUE GILIBERT", "numero_voie": "11", "arrondissement": "7", "longueur": "3", "gid": "118" }, "geometry": { "type": "Point", "coordinates": [ 4.823556435847227, 45.747618666959603 ] } },
{ "type": "Feature", "properties": { "nom": "RUE QUIVOGNE", "numero_voie": "32", "arrondissement": "2", "longueur": "2", "gid": "119" }, "geometry": { "type": "Point", "coordinates": [ 4.824076076549844, 45.743919227404071 ] } },
{ "type": "Feature", "properties": { "nom": "QUAI PERRACHE", "numero_voie": "27", "arrondissement": "2", "longueur": "5", "gid": "120" }, "geometry": { "type": "Point", "coordinates": [ 4.825636820830899, 45.743228155772009 ] } },
{ "type": "Feature", "properties": { "nom": "RUE VAUBECOUR", "numero_voie": "11", "arrondissement": "2", "longueur": "6", "gid": "121" }, "geometry": { "type": "Point", "coordinates": [ 4.826796214715816, 45.754746244151789 ] } },
{ "type": "Feature", "properties": { "nom": "QUAI DOCTEUR GAILLETON", "numero_voie": "45", "arrondissement": "2", "longueur": "6", "gid": "122" }, "geometry": { "type": "Point", "coordinates": [ 4.83129095030753, 45.749881486725833 ] } },
{ "type": "Feature", "properties": { "nom": "RUE DE BONNEL", "numero_voie": "13", "arrondissement": "3", "longueur": "10", "gid": "123" }, "geometry": { "type": "Point", "coordinates": [ 4.843777135810715, 45.761422296906638 ] } },
{ "type": "Feature", "properties": { "nom": "RUE CHARLES RICHARD", "numero_voie": "19", "arrondissement": "3", "longueur": "3", "gid": "124" }, "geometry": { "type": "Point", "coordinates": [ 4.886826302213427, 45.75213420157057 ] } },
{ "type": "Feature", "properties": { "nom": "RUE DU DAUPHINE", "numero_voie": "42", "arrondissement": "3", "longueur": "3", "gid": "125" }, "geometry": { "type": "Point", "coordinates": [ 4.865784970123163, 45.752204768806827 ] } },
{ "type": "Feature", "properties": { "nom": "BOULEVARD EUGENE DERUELLE", "numero_voie": "20", "arrondissement": "3", "longueur": "10", "gid": "126" }, "geometry": { "type": "Point", "coordinates": [ 4.854102664121776, 45.762883776198606 ] } },
{ "type": "Feature", "properties": { "nom": "RUE GARIBALDI", "numero_voie": "208", "arrondissement": "3", "longueur": "5", "gid": "127" }, "geometry": { "type": "Point", "coordinates": [ 4.852288970116256, 45.758508791998302 ] } },
{ "type": "Feature", "properties": { "nom": "COURS LAFAYETTE", "numero_voie": "310", "arrondissement": "3", "longueur": "5", "gid": "128" }, "geometry": { "type": "Point", "coordinates": [ 4.869116902036705, 45.763683826034658 ] } },
{ "type": "Feature", "properties": { "nom": "AVENUE MARECHAL DE SAXE", "numero_voie": "123", "arrondissement": "3", "longueur": "5", "gid": "129" }, "geometry": { "type": "Point", "coordinates": [ 4.846373600314167, 45.757371810610806 ] } },
{ "type": "Feature", "properties": { "nom": "AVENUE MARECHAL DE SAXE", "numero_voie": "157", "arrondissement": "3", "longueur": "12", "gid": "130" }, "geometry": { "type": "Point", "coordinates": [ 4.84697581692878, 45.754463663947817 ] } },
{ "type": "Feature", "properties": { "nom": "AVENUE MARECHAL DE SAXE", "numero_voie": "117", "arrondissement": "3", "longueur": "5", "gid": "131" }, "geometry": { "type": "Point", "coordinates": [ 4.846253226707404, 45.757925825851103 ] } },
{ "type": "Feature", "properties": { "nom": "AVENUE MARECHAL DE SAXE", "numero_voie": "127", "arrondissement": "3", "longueur": "5", "gid": "132" }, "geometry": { "type": "Point", "coordinates": [ 4.846446254670813, 45.757010524879853 ] } },
{ "type": "Feature", "properties": { "nom": "AVENUE MARECHAL DE SAXE", "numero_voie": "148", "arrondissement": "3", "longueur": "17", "gid": "133" }, "geometry": { "type": "Point", "coordinates": [ 4.846761652383892, 45.754450013446146 ] } },
{ "type": "Feature", "properties": { "nom": "RUE MONCEY", "numero_voie": "51", "arrondissement": "3", "longueur": "5", "gid": "134" }, "geometry": { "type": "Point", "coordinates": [ 4.846527757518093, 45.758568069422417 ] } },
{ "type": "Feature", "properties": { "nom": "RUE PAUL BERT", "numero_voie": "65", "arrondissement": "3", "longueur": "5", "gid": "135" }, "geometry": { "type": "Point", "coordinates": [ 4.859105099933315, 45.757115152602211 ] } },
{ "type": "Feature", "properties": { "nom": "RUE PAUL BERT", "numero_voie": "256", "arrondissement": "3", "longueur": "3", "gid": "136" }, "geometry": { "type": "Point", "coordinates": [ 4.868203772309302, 45.756618191993219 ] } },
{ "type": "Feature", "properties": { "nom": "RUE VENDOME", "numero_voie": "153b", "arrondissement": "3", "longueur": "5", "gid": "137" }, "geometry": { "type": "Point", "coordinates": [ 4.846151548774404, 45.763141152377351 ] } },
{ "type": "Feature", "properties": { "nom": "RUE VENDOME", "numero_voie": "254", "arrondissement": "3", "longueur": "5", "gid": "138" }, "geometry": { "type": "Point", "coordinates": [ 4.847157638608178, 45.757300243231875 ] } },
{ "type": "Feature", "properties": { "nom": "PLACE BIR HAKEIM", "numero_voie": "8", "arrondissement": "3", "longueur": "5", "gid": "139" }, "geometry": { "type": "Point", "coordinates": [ 4.854949232689389, 45.752258515768069 ] } },
{ "type": "Feature", "properties": { "nom": "RUE D ARMENIE", "numero_voie": "6", "arrondissement": "3", "longueur": "5", "gid": "140" }, "geometry": { "type": "Point", "coordinates": [ 4.848685248111516, 45.754267515035487 ] } },
{ "type": "Feature", "properties": { "nom": "RUE DE CREQUI", "numero_voie": "157", "arrondissement": "3", "longueur": "3", "gid": "141" }, "geometry": { "type": "Point", "coordinates": [ 4.84713446167096, 45.763483224827674 ] } },
{ "type": "Feature", "properties": { "nom": "BOULEVARD MARIUS VIVIER MERLE", "numero_voie": "84", "arrondissement": "3", "longueur": "7", "gid": "142" }, "geometry": { "type": "Point", "coordinates": [ 4.858938676455051, 45.755093764189439 ] } },
{ "type": "Feature", "properties": { "nom": "IMPASSE SAINT EUSEBE", "numero_voie": "18", "arrondissement": "3", "longueur": "5", "gid": "143" }, "geometry": { "type": "Point", "coordinates": [ 4.873497954037494, 45.75809403640671 ] } },
{ "type": "Feature", "properties": { "nom": "RUE COMMANDANT FUZIER", "numero_voie": "22", "arrondissement": "3", "longueur": "5", "gid": "144" }, "geometry": { "type": "Point", "coordinates": [ 4.846003728236828, 45.754622189836006 ] } },
{ "type": "Feature", "properties": { "nom": "COURS GAMBETTA", "numero_voie": "59B", "arrondissement": "3", "longueur": "4", "gid": "145" }, "geometry": { "type": "Point", "coordinates": [ 4.850761568129583, 45.752695418803384 ] } },
{ "type": "Feature", "properties": { "nom": "COURS LAFAYETTE", "numero_voie": "60", "arrondissement": "3", "longueur": "7", "gid": "146" }, "geometry": { "type": "Point", "coordinates": [ 4.846791370282765, 45.763552119883464 ] } },
{ "type": "Feature", "properties": { "nom": "COURS DE LA LIBERTE", "numero_voie": "53", "arrondissement": "3", "longueur": "5", "gid": "147" }, "geometry": { "type": "Point", "coordinates": [ 4.84270257376618, 45.758089224049336 ] } },
{ "type": "Feature", "properties": { "nom": "COURS DE LA LIBERTE", "numero_voie": "67", "arrondissement": "3", "longueur": "6", "gid": "148" }, "geometry": { "type": "Point", "coordinates": [ 4.842824107569518, 45.757067474317161 ] } },
{ "type": "Feature", "properties": { "nom": "RUE DUGUESCLIN", "numero_voie": "246", "arrondissement": "3", "longueur": "6", "gid": "149" }, "geometry": { "type": "Point", "coordinates": [ 4.849212937075896, 45.758540279466189 ] } },
{ "type": "Feature", "properties": { "nom": "RUE DE BONNEL", "numero_voie": "67", "arrondissement": "3", "longueur": "6", "gid": "150" }, "geometry": { "type": "Point", "coordinates": [ 4.850267473190008, 45.762040312655294 ] } },
{ "type": "Feature", "properties": { "nom": "AVENUE GEORGES POMPIDOU", "numero_voie": "42", "arrondissement": "3", "longueur": "4", "gid": "151" }, "geometry": { "type": "Point", "coordinates": [ 4.867557075090571, 45.759297487512661 ] } },
{ "type": "Feature", "properties": { "nom": "BOULEVARD MARIUS VIVIER MERLE", "numero_voie": "116", "arrondissement": "3", "longueur": "5", "gid": "152" }, "geometry": { "type": "Point", "coordinates": [ 4.859497777648382, 45.752203016986151 ] } },
{ "type": "Feature", "properties": { "nom": "RUE DOCTEUR REBATEL", "numero_voie": "9", "arrondissement": "3", "longueur": "5", "gid": "153" }, "geometry": { "type": "Point", "coordinates": [ 4.87340322976773, 45.749448933934616 ] } },
{ "type": "Feature", "properties": { "nom": "RUE ETIENNE RICHERAND", "numero_voie": "83", "arrondissement": "3", "longueur": "6", "gid": "154" }, "geometry": { "type": "Point", "coordinates": [ 4.86565728330374, 45.756969440288628 ] } },
{ "type": "Feature", "properties": { "nom": "RUE ETIENNE RICHERAND", "numero_voie": "29", "arrondissement": "3", "longueur": "5", "gid": "155" }, "geometry": { "type": "Point", "coordinates": [ 4.866365980183804, 45.761122296040163 ] } },
{ "type": "Feature", "properties": { "nom": "RUE DES RANCY", "numero_voie": "28", "arrondissement": "3", "longueur": "3", "gid": "156" }, "geometry": { "type": "Point", "coordinates": [ 4.851349121399379, 45.756046331356721 ] } },
{ "type": "Feature", "properties": { "nom": "RUE DU LAC", "numero_voie": "22", "arrondissement": "3", "longueur": "2", "gid": "157" }, "geometry": { "type": "Point", "coordinates": [ 4.854508162965854, 45.757612122640786 ] } },
{ "type": "Feature", "properties": { "nom": "RUE DES RANCY", "numero_voie": "22", "arrondissement": "3", "longueur": "5", "gid": "158" }, "geometry": { "type": "Point", "coordinates": [ 4.850602621553517, 45.756036131543162 ] } },
{ "type": "Feature", "properties": { "nom": "RUE D AUBIGNY", "numero_voie": "5", "arrondissement": "3", "longueur": "13", "gid": "159" }, "geometry": { "type": "Point", "coordinates": [ 4.862493028302642, 45.761413825107702 ] } },
{ "type": "Feature", "properties": { "nom": "AVENUE GEORGES POMPIDOU", "numero_voie": "15", "arrondissement": "3", "longueur": "2", "gid": "160" }, "geometry": { "type": "Point", "coordinates": [ 4.863999079030375, 45.759227902545717 ] } },
{ "type": "Feature", "properties": { "nom": "AVENUE GEORGES POMPIDOU", "numero_voie": "17", "arrondissement": "3", "longueur": "2", "gid": "161" }, "geometry": { "type": "Point", "coordinates": [ 4.864292758095606, 45.75922179623705 ] } },
{ "type": "Feature", "properties": { "nom": "COURS LAFAYETTE", "numero_voie": "298", "arrondissement": "3", "longueur": "5", "gid": "162" }, "geometry": { "type": "Point", "coordinates": [ 4.867915777946692, 45.763676476926932 ] } },
{ "type": "Feature", "properties": { "nom": "RUE MOLIERE", "numero_voie": "60", "arrondissement": "3", "longueur": "5", "gid": "163" }, "geometry": { "type": "Point", "coordinates": [ 4.842957153845066, 45.763478839205554 ] } },
{ "type": "Feature", "properties": { "nom": "RUE VERLET HANUS", "numero_voie": "26", "arrondissement": "3", "longueur": "5", "gid": "164" }, "geometry": { "type": "Point", "coordinates": [ 4.850938402289731, 45.757992655723221 ] } },
{ "type": "Feature", "properties": { "nom": "RUE VENDOME", "numero_voie": "244", "arrondissement": "3", "longueur": "5", "gid": "165" }, "geometry": { "type": "Point", "coordinates": [ 4.847039340682374, 45.757913674084058 ] } },
{ "type": "Feature", "properties": { "nom": "RUE MAURICE FLANDIN", "numero_voie": "27", "arrondissement": "3", "longueur": "7", "gid": "166" }, "geometry": { "type": "Point", "coordinates": [ 4.862929022615734, 45.760323365387968 ] } },
{ "type": "Feature", "properties": { "nom": "COURS ALBERT THOMAS", "numero_voie": "69", "arrondissement": "3", "longueur": "5", "gid": "167" }, "geometry": { "type": "Point", "coordinates": [ 4.867269093235939, 45.747008818091693 ] } },
{ "type": "Feature", "properties": { "nom": "RUE DE LA PART DIEU", "numero_voie": "74", "arrondissement": "3", "longueur": "20", "gid": "168" }, "geometry": { "type": "Point", "coordinates": [ 4.848128894642065, 45.759577221876476 ] } },
{ "type": "Feature", "properties": { "nom": "AVENUE LACASSAGNE", "numero_voie": "132", "arrondissement": "3", "longueur": "5", "gid": "169" }, "geometry": { "type": "Point", "coordinates": [ 4.884762841759374, 45.746668709073276 ] } },
{ "type": "Feature", "properties": { "nom": "RUE COMBET DESCOMBES", "numero_voie": "9", "arrondissement": "3", "longueur": "5", "gid": "170" }, "geometry": { "type": "Point", "coordinates": [ 4.870169653560938, 45.757845277684495 ] } },
{ "type": "Feature", "properties": { "nom": "RUE JULIEN", "numero_voie": "3", "arrondissement": "3", "longueur": "2", "gid": "171" }, "geometry": { "type": "Point", "coordinates": [ 4.885436019368804, 45.751899570335816 ] } },
{ "type": "Feature", "properties": { "nom": "RUE SERVIENT", "numero_voie": "10", "arrondissement": "3", "longueur": "5", "gid": "172" }, "geometry": { "type": "Point", "coordinates": [ 4.842054401613809, 45.759930911055847 ] } },
{ "type": "Feature", "properties": { "nom": "RUE PAUL BERT", "numero_voie": "48", "arrondissement": "3", "longueur": "6", "gid": "173" }, "geometry": { "type": "Point", "coordinates": [ 4.848461357090988, 45.756815308814062 ] } },
{ "type": "Feature", "properties": { "nom": "RUE DE LA PART DIEU", "numero_voie": "105", "arrondissement": "3", "longueur": "10", "gid": "174" }, "geometry": { "type": "Point", "coordinates": [ 4.851588391140524, 45.759921862050305 ] } },
{ "type": "Feature", "properties": { "nom": "RUE DE SEVIGNE", "numero_voie": "12", "arrondissement": "3", "longueur": "2", "gid": "175" }, "geometry": { "type": "Point", "coordinates": [ 4.843823040926088, 45.758979365599778 ] } },
{ "type": "Feature", "properties": { "nom": "RUE DANIELLE FAYNEL DUCLOS", "numero_voie": "11", "arrondissement": "3", "longueur": "4.5", "gid": "176" }, "geometry": { "type": "Point", "coordinates": [ 4.85846506115737, 45.7527277015704 ] } },
{ "type": "Feature", "properties": { "nom": "AVENUE FELIX FAURE", "numero_voie": "63", "arrondissement": "3", "longueur": "4", "gid": "177" }, "geometry": { "type": "Point", "coordinates": [ 4.855404895633563, 45.753248054248665 ] } },
{ "type": "Feature", "properties": { "nom": "RUE DUGUESCLIN", "numero_voie": "11", "arrondissement": "3", "longueur": "6", "gid": "178" }, "geometry": { "type": "Point", "coordinates": [ 4.850282338951582, 45.753537958847858 ] } },
{ "type": "Feature", "properties": { "nom": "RUE GARIBALDI", "numero_voie": "149", "arrondissement": "3", "longueur": "6", "gid": "179" }, "geometry": { "type": "Point", "coordinates": [ 4.852094737737055, 45.761443588094586 ] } },
{ "type": "Feature", "properties": { "nom": "AVENUE MARECHAL DE SAXE", "numero_voie": "111", "arrondissement": "3", "longueur": "6", "gid": "180" }, "geometry": { "type": "Point", "coordinates": [ 4.846106873337084, 45.758655077567802 ] } },
{ "type": "Feature", "properties": { "nom": "RUE CELU", "numero_voie": "5", "arrondissement": "4", "longueur": "5", "gid": "181" }, "geometry": { "type": "Point", "coordinates": [ 4.835912680742325, 45.775363080398634 ] } },
{ "type": "Feature", "properties": { "nom": "PLACE COMMANDANT ARNAUD", "numero_voie": "5", "arrondissement": "4", "longueur": "3", "gid": "182" }, "geometry": { "type": "Point", "coordinates": [ 4.835208466968216, 45.779828292102685 ] } },
{ "type": "Feature", "properties": { "nom": "MONTEE JUSTIN GODART", "numero_voie": "18", "arrondissement": "4", "longueur": "10", "gid": "183" }, "geometry": { "type": "Point", "coordinates": [ 4.837226407651664, 45.775859404540554 ] } },
{ "type": "Feature", "properties": { "nom": "RUE DE LA TOUR DU PIN", "numero_voie": "2", "arrondissement": "4", "longueur": "7", "gid": "184" }, "geometry": { "type": "Point", "coordinates": [ 4.836317646503999, 45.780022400517161 ] } },
{ "type": "Feature", "properties": { "nom": "RUE PHILIPPE DE LASSALLE", "numero_voie": "2", "arrondissement": "4", "longueur": "10", "gid": "185" }, "geometry": { "type": "Point", "coordinates": [ 4.821195366123378, 45.773472263181738 ] } },
{ "type": "Feature", "properties": { "nom": "RUE VILLENEUVE", "numero_voie": "10b", "arrondissement": "4", "longueur": "2", "gid": "186" }, "geometry": { "type": "Point", "coordinates": [ 4.828885506531995, 45.775442401200877 ] } },
{ "type": "Feature", "properties": { "nom": "RUE DE CUIRE", "numero_voie": "12", "arrondissement": "4", "longueur": "5", "gid": "187" }, "geometry": { "type": "Point", "coordinates": [ 4.830598388103206, 45.775963126507762 ] } },
{ "type": "Feature", "properties": { "nom": "GRANDE RUE DE LA CROIX ROUSSE", "numero_voie": "89", "arrondissement": "4", "longueur": "6", "gid": "188" }, "geometry": { "type": "Point", "coordinates": [ 4.832533244023909, 45.780908008263346 ] } },
{ "type": "Feature", "properties": { "nom": "RUE VILLENEUVE", "numero_voie": "5", "arrondissement": "4", "longueur": "8", "gid": "189" }, "geometry": { "type": "Point", "coordinates": [ 4.828723880910239, 45.775126660700082 ] } },
{ "type": "Feature", "properties": { "nom": "RUE DE BELFORT", "numero_voie": "21", "arrondissement": "4", "longueur": "18.5", "gid": "190" }, "geometry": { "type": "Point", "coordinates": [ 4.834779316632202, 45.777720818224324 ] } },
{ "type": "Feature", "properties": { "nom": "PLACE COMMANDANT ARNAUD", "numero_voie": "3", "arrondissement": "4", "longueur": "7", "gid": "191" }, "geometry": { "type": "Point", "coordinates": [ 4.834769886826042, 45.779678306601191 ] } },
{ "type": "Feature", "properties": { "nom": "BOULEVARD DE LA CROIX ROUSSE", "numero_voie": "117", "arrondissement": "4", "longueur": "22", "gid": "192" }, "geometry": { "type": "Point", "coordinates": [ 4.827065163556969, 45.774255070350598 ] } },
{ "type": "Feature", "properties": { "nom": "RUE DUMONT D URVILLE", "numero_voie": "16", "arrondissement": "4", "longueur": "10", "gid": "193" }, "geometry": { "type": "Point", "coordinates": [ 4.836222488602425, 45.778560809787777 ] } },
{ "type": "Feature", "properties": { "nom": "RUE DUVIARD", "numero_voie": "1", "arrondissement": "4", "longueur": "16.5", "gid": "194" }, "geometry": { "type": "Point", "coordinates": [ 4.827834188751861, 45.77461959767318 ] } },
{ "type": "Feature", "properties": { "nom": "RUE D IVRY", "numero_voie": "7", "arrondissement": "4", "longueur": "9", "gid": "195" }, "geometry": { "type": "Point", "coordinates": [ 4.833441710994824, 45.777210322185176 ] } },
{ "type": "Feature", "properties": { "nom": "RUE JACQUARD", "numero_voie": "27", "arrondissement": "4", "longueur": "10", "gid": "196" }, "geometry": { "type": "Point", "coordinates": [ 4.825234485317349, 45.77603807832768 ] } },
{ "type": "Feature", "properties": { "nom": "RUE DE NUITS", "numero_voie": "9", "arrondissement": "4", "longueur": "22", "gid": "197" }, "geometry": { "type": "Point", "coordinates": [ 4.834158943193552, 45.778046756898092 ] } },
{ "type": "Feature", "properties": { "nom": "RUE D AUSTERLITZ", "numero_voie": "7", "arrondissement": "4", "longueur": "11", "gid": "198" }, "geometry": { "type": "Point", "coordinates": [ 4.833874660155745, 45.775863066252526 ] } },
{ "type": "Feature", "properties": { "nom": "RUE D AUSTERLITZ", "numero_voie": "19", "arrondissement": "4", "longueur": "5", "gid": "199" }, "geometry": { "type": "Point", "coordinates": [ 4.83522457570498, 45.775300393846713 ] } },
{ "type": "Feature", "properties": { "nom": "RUE D IVRY", "numero_voie": "31", "arrondissement": "4", "longueur": "10", "gid": "200" }, "geometry": { "type": "Point", "coordinates": [ 4.835879139396569, 45.777170688253442 ] } },
{ "type": "Feature", "properties": { "nom": "RUE JACQUES LOUIS HENON", "numero_voie": "31", "arrondissement": "4", "longueur": "15", "gid": "201" }, "geometry": { "type": "Point", "coordinates": [ 4.829460019534851, 45.779478502205315 ] } },
{ "type": "Feature", "properties": { "nom": "RUE JACQUARD", "numero_voie": "19", "arrondissement": "4", "longueur": "11.6", "gid": "202" }, "geometry": { "type": "Point", "coordinates": [ 4.82686356848409, 45.77582543726114 ] } },
{ "type": "Feature", "properties": { "nom": "PLACE DE LA CROIX ROUSSE", "numero_voie": "22", "arrondissement": "4", "longueur": "15", "gid": "203" }, "geometry": { "type": "Point", "coordinates": [ 4.832535869381169, 45.775312449412681 ] } },
{ "type": "Feature", "properties": { "nom": "RUE CLAUDE JOSEPH BONNET", "numero_voie": "26", "arrondissement": "4", "longueur": "15", "gid": "204" }, "geometry": { "type": "Point", "coordinates": [ 4.823112480788638, 45.774455882013754 ] } },
{ "type": "Feature", "properties": { "nom": "RUE DE CUIRE", "numero_voie": "36", "arrondissement": "4", "longueur": "10", "gid": "205" }, "geometry": { "type": "Point", "coordinates": [ 4.830054936727015, 45.777259305647448 ] } },
{ "type": "Feature", "properties": { "nom": "RUE LEBRUN", "numero_voie": "9", "arrondissement": "4", "longueur": "2", "gid": "206" }, "geometry": { "type": "Point", "coordinates": [ 4.836739025943335, 45.77537775316388 ] } },
{ "type": "Feature", "properties": { "nom": "RUE CHAZIERE", "numero_voie": "23", "arrondissement": "4", "longueur": "10", "gid": "207" }, "geometry": { "type": "Point", "coordinates": [ 4.818140501697967, 45.775177875742315 ] } },
{ "type": "Feature", "properties": { "nom": "MONTEE DU CHEMIN NEUF", "numero_voie": "49", "arrondissement": "5", "longueur": "5", "gid": "208" }, "geometry": { "type": "Point", "coordinates": [ 4.823870681359509, 45.758768100514885 ] } },
{ "type": "Feature", "properties": { "nom": "PLACE DES COMPAGNONS DE LA CHANSON", "numero_voie": "1", "arrondissement": "5", "longueur": "3", "gid": "209" }, "geometry": { "type": "Point", "coordinates": [ 4.796241482630475, 45.756379859285111 ] } },
{ "type": "Feature", "properties": { "nom": "RUE JEAN CARRIES", "numero_voie": "2", "arrondissement": "5", "longueur": "3", "gid": "210" }, "geometry": { "type": "Point", "coordinates": [ 4.826353613747445, 45.760320443241937 ] } },
{ "type": "Feature", "properties": { "nom": "QUAI PIERRE SCIZE", "numero_voie": "85", "arrondissement": "5", "longueur": "5", "gid": "211" }, "geometry": { "type": "Point", "coordinates": [ 4.824027606756812, 45.767293954779056 ] } },
{ "type": "Feature", "properties": { "nom": "QUAI PIERRE SCIZE", "numero_voie": "61", "arrondissement": "5", "longueur": "5", "gid": "212" }, "geometry": { "type": "Point", "coordinates": [ 4.821552362680032, 45.766967325633765 ] } },
{ "type": "Feature", "properties": { "nom": "MONTEE SAINT BARTHELEMY", "numero_voie": "2", "arrondissement": "5", "longueur": "15", "gid": "213" }, "geometry": { "type": "Point", "coordinates": [ 4.826730711428782, 45.765724368420258 ] } },
{ "type": "Feature", "properties": { "nom": "RUE SOEUR BOUVIER", "numero_voie": "29", "arrondissement": "5", "longueur": "5", "gid": "214" }, "geometry": { "type": "Point", "coordinates": [ 4.810957382522454, 45.749725100002316 ] } },
{ "type": "Feature", "properties": { "nom": "QUAI ROMAIN ROLLAND", "numero_voie": "1", "arrondissement": "5", "longueur": "5", "gid": "215" }, "geometry": { "type": "Point", "coordinates": [ 4.829176591434691, 45.764532397883372 ] } },
{ "type": "Feature", "properties": { "nom": "QUAI DE BONDY", "numero_voie": "13", "arrondissement": "5", "longueur": "5", "gid": "216" }, "geometry": { "type": "Point", "coordinates": [ 4.828477092295084, 45.766394889825065 ] } },
{ "type": "Feature", "properties": { "nom": "RUE DE LA BOMBARDE", "numero_voie": "15", "arrondissement": "5", "longueur": "6", "gid": "217" }, "geometry": { "type": "Point", "coordinates": [ 4.826756493919019, 45.761726992420073 ] } },
{ "type": "Feature", "properties": { "nom": "QUAI ROMAIN ROLLAND", "numero_voie": "15", "arrondissement": "5", "longueur": "10", "gid": "218" }, "geometry": { "type": "Point", "coordinates": [ 4.829003219554418, 45.763067246269877 ] } },
{ "type": "Feature", "properties": { "nom": "RUE DE LA QUARANTAINE", "numero_voie": "18", "arrondissement": "5", "longueur": "5", "gid": "219" }, "geometry": { "type": "Point", "coordinates": [ 4.822651292285348, 45.753422742252248 ] } },
{ "type": "Feature", "properties": { "nom": "RUE DE LA BRECHE", "numero_voie": "2", "arrondissement": "5", "longueur": "5", "gid": "220" }, "geometry": { "type": "Point", "coordinates": [ 4.825909394903676, 45.761039476541136 ] } },
{ "type": "Feature", "properties": { "nom": "RUE SAINT GEORGES", "numero_voie": "66", "arrondissement": "5", "longueur": "7", "gid": "221" }, "geometry": { "type": "Point", "coordinates": [ 4.824764669396421, 45.757192063453004 ] } },
{ "type": "Feature", "properties": { "nom": "RUE MONSEIGNEUR LAVARENNE", "numero_voie": "1", "arrondissement": "5", "longueur": "4", "gid": "222" }, "geometry": { "type": "Point", "coordinates": [ 4.827230333837165, 45.759636331337113 ] } },
{ "type": "Feature", "properties": { "nom": "RUE JOLIOT CURIE", "numero_voie": "193", "arrondissement": "5", "longueur": "10", "gid": "223" }, "geometry": { "type": "Point", "coordinates": [ 4.775313819400479, 45.753494547704065 ] } },
{ "type": "Feature", "properties": { "nom": "RUE FRANCOIS VERNAY", "numero_voie": "5", "arrondissement": "5", "longueur": "5", "gid": "224" }, "geometry": { "type": "Point", "coordinates": [ 4.827789027187655, 45.765723401977787 ] } },
{ "type": "Feature", "properties": { "nom": "RUE GERMAIN", "numero_voie": "46", "arrondissement": "6", "longueur": "6", "gid": "225" }, "geometry": { "type": "Point", "coordinates": [ 4.867764296734006, 45.765181388192659 ] } },
{ "type": "Feature", "properties": { "nom": "RUE TETE D OR", "numero_voie": "36", "arrondissement": "6", "longueur": "6", "gid": "226" }, "geometry": { "type": "Point", "coordinates": [ 4.852158166159511, 45.770169548823155 ] } },
{ "type": "Feature", "properties": { "nom": "RUE CURIE", "numero_voie": "5", "arrondissement": "6", "longueur": "6", "gid": "227" }, "geometry": { "type": "Point", "coordinates": [ 4.859187064189029, 45.76966810308592 ] } },
{ "type": "Feature", "properties": { "nom": "RUE TRONCHET", "numero_voie": "20", "arrondissement": "6", "longueur": "6", "gid": "228" }, "geometry": { "type": "Point", "coordinates": [ 4.845768900552125, 45.769629848843735 ] } },
{ "type": "Feature", "properties": { "nom": "RUE LAURENT VIBERT", "numero_voie": "2", "arrondissement": "6", "longueur": "5", "gid": "229" }, "geometry": { "type": "Point", "coordinates": [ 4.850478770994656, 45.770436301242952 ] } },
{ "type": "Feature", "properties": { "nom": "RUE VIRICEL", "numero_voie": "1", "arrondissement": "6", "longueur": "6", "gid": "230" }, "geometry": { "type": "Point", "coordinates": [ 4.853078785486399, 45.768616260958893 ] } },
{ "type": "Feature", "properties": { "nom": "RUE WALDECK ROUSSEAU", "numero_voie": "13", "arrondissement": "6", "longueur": "6", "gid": "231" }, "geometry": { "type": "Point", "coordinates": [ 4.858346247286899, 45.769017995401995 ] } },
{ "type": "Feature", "properties": { "nom": "RUE DOCTEUR MOUISSET", "numero_voie": "5", "arrondissement": "6", "longueur": "3.7", "gid": "232" }, "geometry": { "type": "Point", "coordinates": [ 4.84167499323756, 45.771283744733395 ] } },
{ "type": "Feature", "properties": { "nom": "RUE GERMAIN", "numero_voie": "51", "arrondissement": "6", "longueur": "9", "gid": "233" }, "geometry": { "type": "Point", "coordinates": [ 4.868673906662588, 45.765253744795828 ] } },
{ "type": "Feature", "properties": { "nom": "RUE TETE D OR", "numero_voie": "28", "arrondissement": "6", "longueur": "5", "gid": "234" }, "geometry": { "type": "Point", "coordinates": [ 4.852032491474342, 45.770829988592851 ] } },
{ "type": "Feature", "properties": { "nom": "RUE PIERRE CORNEILLE", "numero_voie": "24", "arrondissement": "6", "longueur": "10", "gid": "235" }, "geometry": { "type": "Point", "coordinates": [ 4.84326078362984, 45.766476535576835 ] } },
{ "type": "Feature", "properties": { "nom": "AVENUE MARECHAL DE SAXE", "numero_voie": "41", "arrondissement": "6", "longueur": "6", "gid": "236" }, "geometry": { "type": "Point", "coordinates": [ 4.84492622876744, 45.764277964681433 ] } },
{ "type": "Feature", "properties": { "nom": "AVENUE MARECHAL DE SAXE", "numero_voie": "18", "arrondissement": "6", "longueur": "3", "gid": "237" }, "geometry": { "type": "Point", "coordinates": [ 4.844093786480521, 45.767191713813673 ] } },
{ "type": "Feature", "properties": { "nom": "AVENUE MARECHAL FOCH", "numero_voie": "56", "arrondissement": "6", "longueur": "5", "gid": "238" }, "geometry": { "type": "Point", "coordinates": [ 4.843580465030048, 45.769585920735665 ] } },
{ "type": "Feature", "properties": { "nom": "AVENUE MARECHAL FOCH", "numero_voie": "20", "arrondissement": "6", "longueur": "5", "gid": "239" }, "geometry": { "type": "Point", "coordinates": [ 4.84305699909064, 45.772081409296014 ] } },
{ "type": "Feature", "properties": { "nom": "RUE MOLIERE", "numero_voie": "23", "arrondissement": "6", "longueur": "5", "gid": "240" }, "geometry": { "type": "Point", "coordinates": [ 4.842511573339139, 45.766480238692949 ] } },
{ "type": "Feature", "properties": { "nom": "RUE NOTRE DAME", "numero_voie": "38", "arrondissement": "6", "longueur": "10", "gid": "241" }, "geometry": { "type": "Point", "coordinates": [ 4.867871547688662, 45.763889832968268 ] } },
{ "type": "Feature", "properties": { "nom": "RUE AMEDEE BONNET", "numero_voie": "41", "arrondissement": "6", "longueur": "5", "gid": "242" }, "geometry": { "type": "Point", "coordinates": [ 4.850640742971474, 45.766100036326065 ] } },
{ "type": "Feature", "properties": { "nom": "RUE AMEDEE BONNET", "numero_voie": "41", "arrondissement": "6", "longueur": "5", "gid": "243" }, "geometry": { "type": "Point", "coordinates": [ 4.850658971640146, 45.766030364218416 ] } },
{ "type": "Feature", "properties": { "nom": "PLACE GENERAL LECLERC", "numero_voie": "1", "arrondissement": "6", "longueur": "5", "gid": "244" }, "geometry": { "type": "Point", "coordinates": [ 4.845026432235773, 45.776746704498521 ] } },
{ "type": "Feature", "properties": { "nom": "RUE BOSSUET", "numero_voie": "10", "arrondissement": "6", "longueur": "5", "gid": "245" }, "geometry": { "type": "Point", "coordinates": [ 4.84541513293637, 45.767317587136638 ] } },
{ "type": "Feature", "properties": { "nom": "QUAI GENERAL SARRAIL", "numero_voie": "22", "arrondissement": "6", "longueur": "12", "gid": "246" }, "geometry": { "type": "Point", "coordinates": [ 4.841670595223468, 45.763829673376065 ] } },
{ "type": "Feature", "properties": { "nom": "RUE SULLY", "numero_voie": "16", "arrondissement": "6", "longueur": "8", "gid": "247" }, "geometry": { "type": "Point", "coordinates": [ 4.843268648779231, 45.770575806167201 ] } },
{ "type": "Feature", "properties": { "nom": "RUE BOSSUET", "numero_voie": "15", "arrondissement": "6", "longueur": "5", "gid": "248" }, "geometry": { "type": "Point", "coordinates": [ 4.846553929142072, 45.767499017764727 ] } },
{ "type": "Feature", "properties": { "nom": "QUAI CHARLES DE GAULLE", "numero_voie": "80", "arrondissement": "6", "longueur": "10", "gid": "249" }, "geometry": { "type": "Point", "coordinates": [ 4.851859449659591, 45.784588843936532 ] } },
{ "type": "Feature", "properties": { "nom": "QUAI CHARLES DE GAULLE", "numero_voie": "66", "arrondissement": "6", "longueur": "5", "gid": "250" }, "geometry": { "type": "Point", "coordinates": [ 4.853581322148097, 45.785176996733313 ] } },
{ "type": "Feature", "properties": { "nom": "PLACE JULES FERRY", "numero_voie": "14", "arrondissement": "6", "longueur": "5", "gid": "251" }, "geometry": { "type": "Point", "coordinates": [ 4.859361714720754, 45.767641808021253 ] } },
{ "type": "Feature", "properties": { "nom": "RUE MASSENA", "numero_voie": "102", "arrondissement": "6", "longueur": "6", "gid": "252" }, "geometry": { "type": "Point", "coordinates": [ 4.854879439587674, 45.765463564955276 ] } },
{ "type": "Feature", "properties": { "nom": "RUE VAUBAN", "numero_voie": "153", "arrondissement": "6", "longueur": "10", "gid": "253" }, "geometry": { "type": "Point", "coordinates": [ 4.858630925699638, 45.766289457947614 ] } },
{ "type": "Feature", "properties": { "nom": "RUE WALDECK ROUSSEAU", "numero_voie": "14", "arrondissement": "6", "longueur": "5", "gid": "254" }, "geometry": { "type": "Point", "coordinates": [ 4.858254812527533, 45.768412462914874 ] } },
{ "type": "Feature", "properties": { "nom": "AVENUE THIERS", "numero_voie": "140", "arrondissement": "6", "longueur": "2", "gid": "255" }, "geometry": { "type": "Point", "coordinates": [ 4.861572922111226, 45.770186651432752 ] } },
{ "type": "Feature", "properties": { "nom": "RUE TETE D OR", "numero_voie": "52", "arrondissement": "6", "longueur": "10", "gid": "256" }, "geometry": { "type": "Point", "coordinates": [ 4.85240403236964, 45.768913374157677 ] } },
{ "type": "Feature", "properties": { "nom": "COURS FRANKLIN ROOSEVELT", "numero_voie": "31", "arrondissement": "6", "longueur": "3", "gid": "257" }, "geometry": { "type": "Point", "coordinates": [ 4.847575897256099, 45.769124872388701 ] } },
{ "type": "Feature", "properties": { "nom": "RUE DUGUESCLIN", "numero_voie": "142", "arrondissement": "6", "longueur": "4", "gid": "258" }, "geometry": { "type": "Point", "coordinates": [ 4.847812686878279, 45.765900169974948 ] } },
{ "type": "Feature", "properties": { "nom": "RUE BOSSUET", "numero_voie": "51", "arrondissement": "6", "longueur": "9", "gid": "259" }, "geometry": { "type": "Point", "coordinates": [ 4.851032004979715, 45.767905653511455 ] } },
{ "type": "Feature", "properties": { "nom": "RUE DE LA PART DIEU", "numero_voie": "80", "arrondissement": "6", "longueur": "11", "gid": "260" }, "geometry": { "type": "Point", "coordinates": [ 4.849245303832172, 45.759656983651844 ] } },
{ "type": "Feature", "properties": { "nom": "PLACE MARECHAL LYAUTEY", "numero_voie": "12", "arrondissement": "6", "longueur": "5", "gid": "261" }, "geometry": { "type": "Point", "coordinates": [ 4.84306110905997, 45.768163856161358 ] } },
{ "type": "Feature", "properties": { "nom": "RUE FENELON", "numero_voie": "10", "arrondissement": "6", "longueur": "5", "gid": "262" }, "geometry": { "type": "Point", "coordinates": [ 4.843583709329153, 45.764304130401733 ] } },
{ "type": "Feature", "properties": { "nom": "RUE VENDOME", "numero_voie": "90", "arrondissement": "6", "longueur": "5", "gid": "263" }, "geometry": { "type": "Point", "coordinates": [ 4.845117100966888, 45.767926855350453 ] } },
{ "type": "Feature", "properties": { "nom": "RUE BOSSUET", "numero_voie": "28", "arrondissement": "6", "longueur": "5", "gid": "264" }, "geometry": { "type": "Point", "coordinates": [ 4.847405394453996, 45.767504143968587 ] } },
{ "type": "Feature", "properties": { "nom": "BOULEVARD STALINGRAD", "numero_voie": "161", "arrondissement": "6", "longueur": "2", "gid": "265" }, "geometry": { "type": "Point", "coordinates": [ 4.858652048022837, 45.770779329395964 ] } },
{ "type": "Feature", "properties": { "nom": "BOULEVARD STALINGRAD", "numero_voie": "167", "arrondissement": "6", "longueur": "3", "gid": "266" }, "geometry": { "type": "Point", "coordinates": [ 4.858597276974018, 45.770227057642963 ] } },
{ "type": "Feature", "properties": { "nom": "QUAI DE SERBIE", "numero_voie": "6", "arrondissement": "6", "longueur": "5", "gid": "267" }, "geometry": { "type": "Point", "coordinates": [ 4.841126765956234, 45.771107345066333 ] } },
{ "type": "Feature", "properties": { "nom": "RUE DUGUESCLIN", "numero_voie": "14", "arrondissement": "6", "longueur": "4", "gid": "268" }, "geometry": { "type": "Point", "coordinates": [ 4.846089042984129, 45.77501246341712 ] } },
{ "type": "Feature", "properties": { "nom": "RUE DE CREQUI", "numero_voie": "59", "arrondissement": "6", "longueur": "2", "gid": "269" }, "geometry": { "type": "Point", "coordinates": [ 4.845446106527893, 45.771791002077606 ] } },
{ "type": "Feature", "properties": { "nom": "RUE MASSENA", "numero_voie": "92", "arrondissement": "6", "longueur": "5", "gid": "270" }, "geometry": { "type": "Point", "coordinates": [ 4.854735683216047, 45.766252650622548 ] } },
{ "type": "Feature", "properties": { "nom": "RUE MASSENA", "numero_voie": "75", "arrondissement": "6", "longueur": "5", "gid": "271" }, "geometry": { "type": "Point", "coordinates": [ 4.854647614200026, 45.767210691747138 ] } },
{ "type": "Feature", "properties": { "nom": "RUE MASSENA", "numero_voie": "69", "arrondissement": "6", "longueur": "5", "gid": "272" }, "geometry": { "type": "Point", "coordinates": [ 4.854516925256163, 45.767458024534264 ] } },
{ "type": "Feature", "properties": { "nom": "RUE NEY", "numero_voie": "42", "arrondissement": "6", "longueur": "10", "gid": "273" }, "geometry": { "type": "Point", "coordinates": [ 4.855305431379929, 45.768743007806243 ] } },
{ "type": "Feature", "properties": { "nom": "RUE NEY", "numero_voie": "43", "arrondissement": "6", "longueur": "10", "gid": "274" }, "geometry": { "type": "Point", "coordinates": [ 4.855433686524171, 45.768507219740343 ] } },
{ "type": "Feature", "properties": { "nom": "RUE NEY", "numero_voie": "59", "arrondissement": "6", "longueur": "10", "gid": "275" }, "geometry": { "type": "Point", "coordinates": [ 4.855640277032292, 45.767390284408549 ] } },
{ "type": "Feature", "properties": { "nom": "RUE NEY", "numero_voie": "52", "arrondissement": "6", "longueur": "10", "gid": "276" }, "geometry": { "type": "Point", "coordinates": [ 4.855432928148256, 45.768043690590979 ] } },
{ "type": "Feature", "properties": { "nom": "RUE JULIETTE RECAMIER", "numero_voie": "9", "arrondissement": "6", "longueur": "2", "gid": "277" }, "geometry": { "type": "Point", "coordinates": [ 4.853210574327821, 45.764118354747403 ] } },
{ "type": "Feature", "properties": { "nom": "AVENUE THIERS", "numero_voie": "111", "arrondissement": "6", "longueur": "3", "gid": "278" }, "geometry": { "type": "Point", "coordinates": [ 4.861821557182695, 45.770869335950074 ] } },
{ "type": "Feature", "properties": { "nom": "COURS VITTON", "numero_voie": "112", "arrondissement": "6", "longueur": "5", "gid": "279" }, "geometry": { "type": "Point", "coordinates": [ 4.862130810593014, 45.77032711479368 ] } },
{ "type": "Feature", "properties": { "nom": "RUE BERANGER", "numero_voie": "3", "arrondissement": "6", "longueur": "3", "gid": "280" }, "geometry": { "type": "Point", "coordinates": [ 4.860877732373693, 45.769993396037641 ] } },
{ "type": "Feature", "properties": { "nom": "PLACE GENERAL BROSSET", "numero_voie": "2", "arrondissement": "6", "longueur": "5", "gid": "281" }, "geometry": { "type": "Point", "coordinates": [ 4.857371302474254, 45.767032523928329 ] } },
{ "type": "Feature", "properties": { "nom": "RUE BOSSUET", "numero_voie": "5", "arrondissement": "6", "longueur": "10", "gid": "282" }, "geometry": { "type": "Point", "coordinates": [ 4.84542064137779, 45.767396676346721 ] } },
{ "type": "Feature", "properties": { "nom": "RUE WALDECK ROUSSEAU", "numero_voie": "66", "arrondissement": "6", "longueur": "12", "gid": "283" }, "geometry": { "type": "Point", "coordinates": [ 4.858163493302775, 45.764279796464351 ] } },
{ "type": "Feature", "properties": { "nom": "RUE DE SEZE", "numero_voie": "34", "arrondissement": "6", "longueur": "5", "gid": "284" }, "geometry": { "type": "Point", "coordinates": [ 4.846457756665044, 45.768113247077288 ] } },
{ "type": "Feature", "properties": { "nom": "COURS FRANKLIN ROOSEVELT", "numero_voie": "38", "arrondissement": "6", "longueur": "10", "gid": "285" }, "geometry": { "type": "Point", "coordinates": [ 4.84717899705582, 45.768875058119086 ] } },
{ "type": "Feature", "properties": { "nom": "RUE CHEVREUL", "numero_voie": "100", "arrondissement": "7", "longueur": "13", "gid": "286" }, "geometry": { "type": "Point", "coordinates": [ 4.848556529192978, 45.745233190723383 ] } },
{ "type": "Feature", "properties": { "nom": "RUE CHEVREUL", "numero_voie": "61", "arrondissement": "7", "longueur": "5", "gid": "287" }, "geometry": { "type": "Point", "coordinates": [ 4.841285649014079, 45.748118687807107 ] } },
{ "type": "Feature", "properties": { "nom": "RUE CHEVREUL", "numero_voie": "18", "arrondissement": "7", "longueur": "8", "gid": "288" }, "geometry": { "type": "Point", "coordinates": [ 4.837847405145913, 45.749328733115568 ] } },
{ "type": "Feature", "properties": { "nom": "RUE CLAUDE VEYRON", "numero_voie": "23", "arrondissement": "7", "longueur": "4", "gid": "289" }, "geometry": { "type": "Point", "coordinates": [ 4.857887623559334, 45.745564560631642 ] } },
{ "type": "Feature", "properties": { "nom": "AVENUE FELIX FAURE", "numero_voie": "6", "arrondissement": "7", "longueur": "4", "gid": "290" }, "geometry": { "type": "Point", "coordinates": [ 4.846868751048483, 45.752094226433719 ] } },
{ "type": "Feature", "properties": { "nom": "RUE DE GERLAND", "numero_voie": "100", "arrondissement": "7", "longueur": "5", "gid": "291" }, "geometry": { "type": "Point", "coordinates": [ 4.839593791684726, 45.73631250192696 ] } },
{ "type": "Feature", "properties": { "nom": "AVENUE JEAN JAURES", "numero_voie": "12", "arrondissement": "7", "longueur": "5", "gid": "292" }, "geometry": { "type": "Point", "coordinates": [ 4.846360076938877, 45.752962886858811 ] } },
{ "type": "Feature", "properties": { "nom": "AVENUE JEAN JAURES", "numero_voie": "3", "arrondissement": "7", "longueur": "7", "gid": "293" }, "geometry": { "type": "Point", "coordinates": [ 4.846876141836731, 45.753549801446638 ] } },
{ "type": "Feature", "properties": { "nom": "AVENUE JEAN JAURES", "numero_voie": "5", "arrondissement": "7", "longueur": "7", "gid": "294" }, "geometry": { "type": "Point", "coordinates": [ 4.846827105005532, 45.753466492138948 ] } },
{ "type": "Feature", "properties": { "nom": "AVENUE JEAN JAURES", "numero_voie": "181", "arrondissement": "7", "longueur": "10", "gid": "295" }, "geometry": { "type": "Point", "coordinates": [ 4.836880157467302, 45.736643484024228 ] } },
{ "type": "Feature", "properties": { "nom": "AVENUE JEAN JAURES", "numero_voie": "75", "arrondissement": "7", "longueur": "7", "gid": "296" }, "geometry": { "type": "Point", "coordinates": [ 4.843363071385871, 45.747522388700418 ] } },
{ "type": "Feature", "properties": { "nom": "RUE MARCEL MERIEUX", "numero_voie": "181", "arrondissement": "7", "longueur": "5", "gid": "297" }, "geometry": { "type": "Point", "coordinates": [ 4.829608605735721, 45.735421868602792 ] } },
{ "type": "Feature", "properties": { "nom": "RUE DE MARSEILLE", "numero_voie": "76", "arrondissement": "7", "longueur": "2", "gid": "298" }, "geometry": { "type": "Point", "coordinates": [ 4.838690600206441, 45.749648508753495 ] } },
{ "type": "Feature", "properties": { "nom": "RUE MONTESQUIEU", "numero_voie": "9", "arrondissement": "7", "longueur": "6", "gid": "299" }, "geometry": { "type": "Point", "coordinates": [ 4.840045197608199, 45.753825749675258 ] } },
{ "type": "Feature", "properties": { "nom": "RUE MONTESQUIEU", "numero_voie": "92", "arrondissement": "7", "longueur": "15", "gid": "300" }, "geometry": { "type": "Point", "coordinates": [ 4.845662577160053, 45.750872052975424 ] } },
{ "type": "Feature", "properties": { "nom": "RUE NICOLAI", "numero_voie": "10", "arrondissement": "7", "longueur": "5", "gid": "301" }, "geometry": { "type": "Point", "coordinates": [ 4.856622004189169, 45.749604307714272 ] } },
{ "type": "Feature", "properties": { "nom": "RUE PASTEUR", "numero_voie": "64", "arrondissement": "7", "longueur": "5", "gid": "302" }, "geometry": { "type": "Point", "coordinates": [ 4.839041142158903, 45.751847584413767 ] } },
{ "type": "Feature", "properties": { "nom": "RUE PIERRE SEMARD", "numero_voie": "20", "arrondissement": "7", "longueur": "4", "gid": "303" }, "geometry": { "type": "Point", "coordinates": [ 4.843876846480092, 45.741832835519418 ] } },
{ "type": "Feature", "properties": { "nom": "RUE SEBASTIEN GRYPHE", "numero_voie": "124", "arrondissement": "7", "longueur": "5", "gid": "304" }, "geometry": { "type": "Point", "coordinates": [ 4.839314393557681, 45.748290138261339 ] } },
{ "type": "Feature", "properties": { "nom": "RUE DE LA THIBAUDIERE", "numero_voie": "37", "arrondissement": "7", "longueur": "4", "gid": "305" }, "geometry": { "type": "Point", "coordinates": [ 4.845876300284434, 45.750100344502819 ] } },
{ "type": "Feature", "properties": { "nom": "RUE PRE GAUDRY", "numero_voie": "57", "arrondissement": "7", "longueur": "5", "gid": "306" }, "geometry": { "type": "Point", "coordinates": [ 4.837507367801858, 45.738301651624525 ] } },
{ "type": "Feature", "properties": { "nom": "GRANDE RUE DE LA GUILLOTIERE", "numero_voie": "186", "arrondissement": "7", "longueur": "5", "gid": "307" }, "geometry": { "type": "Point", "coordinates": [ 4.853897376198209, 45.748784466212641 ] } },
{ "type": "Feature", "properties": { "nom": "RUE JABOULAY", "numero_voie": "10", "arrondissement": "7", "longueur": "9", "gid": "308" }, "geometry": { "type": "Point", "coordinates": [ 4.836771173587089, 45.748801952971689 ] } },
{ "type": "Feature", "properties": { "nom": "RUE DE L UNIVERSITE", "numero_voie": "32", "arrondissement": "7", "longueur": "7", "gid": "309" }, "geometry": { "type": "Point", "coordinates": [ 4.841340337122923, 45.749491984303866 ] } },
{ "type": "Feature", "properties": { "nom": "AVENUE LECLERC", "numero_voie": "29", "arrondissement": "7", "longueur": "5", "gid": "310" }, "geometry": { "type": "Point", "coordinates": [ 4.826232830405758, 45.739389614553055 ] } },
{ "type": "Feature", "properties": { "nom": "AVENUE JEAN JAURES", "numero_voie": "245", "arrondissement": "7", "longueur": "5", "gid": "311" }, "geometry": { "type": "Point", "coordinates": [ 4.834802391834258, 45.733097471449902 ] } },
{ "type": "Feature", "properties": { "nom": "RUE GUSTAVE NADAUD", "numero_voie": "9", "arrondissement": "7", "longueur": "5", "gid": "312" }, "geometry": { "type": "Point", "coordinates": [ 4.832453056894552, 45.744142620405782 ] } },
{ "type": "Feature", "properties": { "nom": "COURS GAMBETTA", "numero_voie": "42", "arrondissement": "7", "longueur": "3", "gid": "313" }, "geometry": { "type": "Point", "coordinates": [ 4.845775674322431, 45.754234187504629 ] } },
{ "type": "Feature", "properties": { "nom": "RUE D AGUESSEAU", "numero_voie": "14", "arrondissement": "7", "longueur": "5", "gid": "314" }, "geometry": { "type": "Point", "coordinates": [ 4.840450410922173, 45.75430843037698 ] } },
{ "type": "Feature", "properties": { "nom": "RUE MARC BLOCH", "numero_voie": "4", "arrondissement": "7", "longueur": "8", "gid": "315" }, "geometry": { "type": "Point", "coordinates": [ 4.843916503483166, 45.747978584723931 ] } },
{ "type": "Feature", "properties": { "nom": "ROUTE DE VIENNE", "numero_voie": "44", "arrondissement": "7", "longueur": "8", "gid": "316" }, "geometry": { "type": "Point", "coordinates": [ 4.850727611250369, 45.742154993019412 ] } },
{ "type": "Feature", "properties": { "nom": "RUE JABOULAY", "numero_voie": "2", "arrondissement": "7", "longueur": "10", "gid": "317" }, "geometry": { "type": "Point", "coordinates": [ 4.835361665098972, 45.749331531826478 ] } },
{ "type": "Feature", "properties": { "nom": "AVENUE BERTHELOT", "numero_voie": "12", "arrondissement": "7", "longueur": "5", "gid": "318" }, "geometry": { "type": "Point", "coordinates": [ 4.835547384606533, 45.747160385482225 ] } },
{ "type": "Feature", "properties": { "nom": "QUAI CLAUDE BERNARD", "numero_voie": "3", "arrondissement": "7", "longueur": "10", "gid": "319" }, "geometry": { "type": "Point", "coordinates": [ 4.83890048693037, 45.754162203207784 ] } },
{ "type": "Feature", "properties": { "nom": "RUE ANDRE PHILIP", "numero_voie": "338", "arrondissement": "7", "longueur": "5", "gid": "320" }, "geometry": { "type": "Point", "coordinates": [ 4.85222307769484, 45.751594925382626 ] } },
{ "type": "Feature", "properties": { "nom": "RUE LORTET", "numero_voie": "11", "arrondissement": "7", "longueur": "5", "gid": "321" }, "geometry": { "type": "Point", "coordinates": [ 4.83555903934768, 45.742983452739281 ] } },
{ "type": "Feature", "properties": { "nom": "GRANDE RUE DE LA GUILLOTIERE", "numero_voie": "160", "arrondissement": "7", "longueur": "5", "gid": "322" }, "geometry": { "type": "Point", "coordinates": [ 4.852522235277584, 45.74970799962167 ] } },
{ "type": "Feature", "properties": { "nom": "RUE RAULIN", "numero_voie": "11", "arrondissement": "7", "longueur": "10", "gid": "323" }, "geometry": { "type": "Point", "coordinates": [ 4.836379675151476, 45.749366471046201 ] } },
{ "type": "Feature", "properties": { "nom": "RUE BECHEVELIN", "numero_voie": "4", "arrondissement": "7", "longueur": "10", "gid": "324" }, "geometry": { "type": "Point", "coordinates": [ 4.842365783837675, 45.7540801773388 ] } },
{ "type": "Feature", "properties": { "nom": "PLACE GABRIEL PERI", "numero_voie": "4", "arrondissement": "7", "longueur": "3", "gid": "325" }, "geometry": { "type": "Point", "coordinates": [ 4.843507811557634, 45.754790750243124 ] } },
{ "type": "Feature", "properties": { "nom": "AVENUE JEAN JAURES", "numero_voie": "34", "arrondissement": "7", "longueur": "2", "gid": "326" }, "geometry": { "type": "Point", "coordinates": [ 4.845419575244144, 45.751415737892621 ] } },
{ "type": "Feature", "properties": { "nom": "RUE CHEVREUL", "numero_voie": "53", "arrondissement": "7", "longueur": "5", "gid": "327" }, "geometry": { "type": "Point", "coordinates": [ 4.840767822180156, 45.748323263197761 ] } },
{ "type": "Feature", "properties": { "nom": "RUE DOCTEUR CRESTIN", "numero_voie": "6", "arrondissement": "7", "longueur": "10", "gid": "328" }, "geometry": { "type": "Point", "coordinates": [ 4.856817912588688, 45.747042727674746 ] } },
{ "type": "Feature", "properties": { "nom": "RUE RAOUL SERVANT", "numero_voie": "17", "arrondissement": "7", "longueur": "3", "gid": "329" }, "geometry": { "type": "Point", "coordinates": [ 4.835814835814622, 45.745641181689976 ] } },
{ "type": "Feature", "properties": { "nom": "RUE JONAS SALK", "numero_voie": "8", "arrondissement": "7", "longueur": "5", "gid": "330" }, "geometry": { "type": "Point", "coordinates": [ 4.822935437090055, 45.730179591733673 ] } },
{ "type": "Feature", "properties": { "nom": "RUE JONAS SALK", "numero_voie": "12", "arrondissement": "7", "longueur": "3", "gid": "331" }, "geometry": { "type": "Point", "coordinates": [ 4.822874833274992, 45.72960332130306 ] } },
{ "type": "Feature", "properties": { "nom": "Rue Jonas Salk", "numero_voie": "1", "arrondissement": "7", "longueur": "2", "gid": "332" }, "geometry": { "type": "Point", "coordinates": [ 4.822803222581068, 45.728363255741563 ] } },
{ "type": "Feature", "properties": { "nom": "RUE DE TURIN", "numero_voie": "3", "arrondissement": "7", "longueur": "2", "gid": "333" }, "geometry": { "type": "Point", "coordinates": [ 4.822902311181587, 45.727709367083733 ] } },
{ "type": "Feature", "properties": { "nom": "RUE DE LA MADELEINE", "numero_voie": "13", "arrondissement": "7", "longueur": "4", "gid": "334" }, "geometry": { "type": "Point", "coordinates": [ 4.847753975527252, 45.748966070908111 ] } },
{ "type": "Feature", "properties": { "nom": "RUE DOMER", "numero_voie": "2", "arrondissement": "7", "longueur": "5", "gid": "335" }, "geometry": { "type": "Point", "coordinates": [ 4.843378352614141, 45.746530921797763 ] } },
{ "type": "Feature", "properties": { "nom": "AVENUE DEBOURG", "numero_voie": "20", "arrondissement": "7", "longueur": "10", "gid": "336" }, "geometry": { "type": "Point", "coordinates": [ 4.825916365661932, 45.731600782445604 ] } },
{ "type": "Feature", "properties": { "nom": "RUE DE MARSEILLE", "numero_voie": "90", "arrondissement": "7", "longueur": "5", "gid": "337" }, "geometry": { "type": "Point", "coordinates": [ 4.837958761955052, 45.748605431312662 ] } },
{ "type": "Feature", "properties": { "nom": "RUE GARIBALDI", "numero_voie": "313", "arrondissement": "7", "longueur": "5", "gid": "338" }, "geometry": { "type": "Point", "coordinates": [ 4.853407731141819, 45.748867334957552 ] } },
{ "type": "Feature", "properties": { "nom": "RUE SEBASTIEN GRYPHE", "numero_voie": "131", "arrondissement": "7", "longueur": "5", "gid": "339" }, "geometry": { "type": "Point", "coordinates": [ 4.838983152493625, 45.747907645671084 ] } },
{ "type": "Feature", "properties": { "nom": "GRANDE RUE DE LA GUILLOTIERE", "numero_voie": "214", "arrondissement": "7", "longueur": "5", "gid": "340" }, "geometry": { "type": "Point", "coordinates": [ 4.856374965091391, 45.747813194928639 ] } },
{ "type": "Feature", "properties": { "nom": "GRANDE RUE DE LA GUILLOTIERE", "numero_voie": "97", "arrondissement": "7", "longueur": "6", "gid": "341" }, "geometry": { "type": "Point", "coordinates": [ 4.847293550183318, 45.751692347794581 ] } },
{ "type": "Feature", "properties": { "nom": "AVENUE JEAN JAURES", "numero_voie": "162", "arrondissement": "7", "longueur": "6", "gid": "342" }, "geometry": { "type": "Point", "coordinates": [ 4.838281623494096, 45.73934837418696 ] } },
{ "type": "Feature", "properties": { "nom": "BOULEVARD DES ETATS UNIS", "numero_voie": "50", "arrondissement": "8", "longueur": "8", "gid": "343" }, "geometry": { "type": "Point", "coordinates": [ 4.86190421066587, 45.736435662082677 ] } },
{ "type": "Feature", "properties": { "nom": "AVENUE DES FRERES LUMIERE", "numero_voie": "102", "arrondissement": "8", "longueur": "5", "gid": "344" }, "geometry": { "type": "Point", "coordinates": [ 4.868467371631877, 45.744504144215661 ] } },
{ "type": "Feature", "properties": { "nom": "RUE MARYSE BASTIE", "numero_voie": "11", "arrondissement": "8", "longueur": "6", "gid": "345" }, "geometry": { "type": "Point", "coordinates": [ 4.87426179879264, 45.741861215763514 ] } },
{ "type": "Feature", "properties": { "nom": "AVENUE VIVIANI", "numero_voie": "35t", "arrondissement": "8", "longueur": "10", "gid": "346" }, "geometry": { "type": "Point", "coordinates": [ 4.873568292109696, 45.723909939935432 ] } },
{ "type": "Feature", "properties": { "nom": "PROMENADE LEA ET NAPOLEON BULLUKIAN", "numero_voie": "19", "arrondissement": "8", "longueur": "4", "gid": "347" }, "geometry": { "type": "Point", "coordinates": [ 4.878734023001999, 45.741710251341352 ] } },
{ "type": "Feature", "properties": { "nom": "RUE JEAN PERREAL", "numero_voie": "26", "arrondissement": "8", "longueur": "4", "gid": "348" }, "geometry": { "type": "Point", "coordinates": [ 4.875392794541593, 45.741507966762342 ] } },
{ "type": "Feature", "properties": { "nom": "RUE VILLON", "numero_voie": "29", "arrondissement": "8", "longueur": "3", "gid": "349" }, "geometry": { "type": "Point", "coordinates": [ 4.866313230551676, 45.745202493331639 ] } },
{ "type": "Feature", "properties": { "nom": "RUE BATAILLE", "numero_voie": "109", "arrondissement": "8", "longueur": "5", "gid": "350" }, "geometry": { "type": "Point", "coordinates": [ 4.876791659725438, 45.73697910849647 ] } },
{ "type": "Feature", "properties": { "nom": "RUE MARIUS BERLIET", "numero_voie": "40", "arrondissement": "8", "longueur": "6", "gid": "351" }, "geometry": { "type": "Point", "coordinates": [ 4.859586494748311, 45.743198836538483 ] } },
{ "type": "Feature", "properties": { "nom": "RUE ANTOINE LUMIERE", "numero_voie": "5", "arrondissement": "8", "longueur": "3.5", "gid": "352" }, "geometry": { "type": "Point", "coordinates": [ 4.870313665860327, 45.74366042275188 ] } },
{ "type": "Feature", "properties": { "nom": "AVENUE BERTHELOT", "numero_voie": "282", "arrondissement": "8", "longueur": "5", "gid": "353" }, "geometry": { "type": "Point", "coordinates": [ 4.862488045455486, 45.738539410232654 ] } },
{ "type": "Feature", "properties": { "nom": "RUE HENRI BARBUSSE", "numero_voie": "34", "arrondissement": "8", "longueur": "5", "gid": "354" }, "geometry": { "type": "Point", "coordinates": [ 4.856293002106299, 45.730459391293266 ] } },
{ "type": "Feature", "properties": { "nom": "RUE AUGUSTE CHOLLAT", "numero_voie": "17", "arrondissement": "8", "longueur": "2", "gid": "355" }, "geometry": { "type": "Point", "coordinates": [ 4.850367821229106, 45.737237399183748 ] } },
{ "type": "Feature", "properties": { "nom": "RUE DES HERIDEAUX", "numero_voie": "44", "arrondissement": "8", "longueur": "5", "gid": "356" }, "geometry": { "type": "Point", "coordinates": [ 4.86515897463875, 45.738856689449157 ] } },
{ "type": "Feature", "properties": { "nom": "RUE COMMANDANT PEGOUT", "numero_voie": "11", "arrondissement": "8", "longueur": "3", "gid": "357" }, "geometry": { "type": "Point", "coordinates": [ 4.867809980394926, 45.730774878363754 ] } },
{ "type": "Feature", "properties": { "nom": "COURS ALBERT THOMAS", "numero_voie": "26", "arrondissement": "8", "longueur": "2", "gid": "358" }, "geometry": { "type": "Point", "coordinates": [ 4.862697601253015, 45.748411363070375 ] } },
{ "type": "Feature", "properties": { "nom": "BOULEVARD DES ETATS-UNIS", "numero_voie": "27", "arrondissement": "8", "longueur": "5", "gid": "359" }, "geometry": { "type": "Point", "coordinates": [ 4.861410430291571, 45.736928252694454 ] } },
{ "type": "Feature", "properties": { "nom": "PETITE RUE DE MONPLAISIR", "numero_voie": "14", "arrondissement": "8", "longueur": "2", "gid": "360" }, "geometry": { "type": "Point", "coordinates": [ 4.862325510995464, 45.747122025122806 ] } },
{ "type": "Feature", "properties": { "nom": "AVENUE BARTHELEMY BUYER", "numero_voie": "220", "arrondissement": "9", "longueur": "5", "gid": "361" }, "geometry": { "type": "Point", "coordinates": [ 4.788368637277404, 45.764181296436995 ] } },
{ "type": "Feature", "properties": { "nom": "RUE NERARD", "numero_voie": "14", "arrondissement": "9", "longueur": "3", "gid": "362" }, "geometry": { "type": "Point", "coordinates": [ 4.803526244794934, 45.776390285614042 ] } },
{ "type": "Feature", "properties": { "nom": "RUE DE LA CLAIRE", "numero_voie": "33", "arrondissement": "9", "longueur": "3", "gid": "363" }, "geometry": { "type": "Point", "coordinates": [ 4.804835241868037, 45.779373220172062 ] } },
{ "type": "Feature", "properties": { "nom": "RUE MARIETTON", "numero_voie": "55b", "arrondissement": "9", "longueur": "5", "gid": "364" }, "geometry": { "type": "Point", "coordinates": [ 4.801617622444246, 45.775739182005424 ] } },
{ "type": "Feature", "properties": { "nom": "RUE SERGENT MICHEL BERTHET", "numero_voie": "47", "arrondissement": "9", "longueur": "20", "gid": "365" }, "geometry": { "type": "Point", "coordinates": [ 4.805638664557298, 45.768648631316175 ] } },
{ "type": "Feature", "properties": { "nom": "PLACE DU MARCHE", "numero_voie": "2", "arrondissement": "9", "longueur": "10", "gid": "366" }, "geometry": { "type": "Point", "coordinates": [ 4.806806062326734, 45.77391900543774 ] } },
{ "type": "Feature", "properties": { "nom": "RUE LOUIS LOUCHEUR", "numero_voie": "2", "arrondissement": "9", "longueur": "10", "gid": "367" }, "geometry": { "type": "Point", "coordinates": [ 4.805141334923296, 45.768217593552421 ] } },
{ "type": "Feature", "properties": { "nom": "PLACE ALFRED VANDERPOL", "numero_voie": "22", "arrondissement": "9", "longueur": "10", "gid": "368" }, "geometry": { "type": "Point", "coordinates": [ 4.807716426168438, 45.773145290734064 ] } },
{ "type": "Feature", "properties": { "nom": "QUAI ARLOING", "numero_voie": "16", "arrondissement": "9", "longueur": "5", "gid": "369" }, "geometry": { "type": "Point", "coordinates": [ 4.81013599288352, 45.772940663747434 ] } },
{ "type": "Feature", "properties": { "nom": "RUE MASARYK", "numero_voie": "15", "arrondissement": "9", "longueur": "5", "gid": "370" }, "geometry": { "type": "Point", "coordinates": [ 4.806172706040766, 45.778797307855982 ] } },
{ "type": "Feature", "properties": { "nom": "QUAI JAYR", "numero_voie": "23", "arrondissement": "9", "longueur": "4", "gid": "371" }, "geometry": { "type": "Point", "coordinates": [ 4.807783125653594, 45.777280047471088 ] } },
{ "type": "Feature", "properties": { "nom": "RUE DOCTEUR HORAND", "numero_voie": "14", "arrondissement": "9", "longueur": "5", "gid": "372" }, "geometry": { "type": "Point", "coordinates": [ 4.801753589715343, 45.771914914583924 ] } },
{ "type": "Feature", "properties": { "nom": "RUE PIERRE BAIZET", "numero_voie": "48", "arrondissement": "9", "longueur": "4", "gid": "373" }, "geometry": { "type": "Point", "coordinates": [ 4.815064967362685, 45.794057920731085 ] } },
{ "type": "Feature", "properties": { "nom": "RUE BOISSAC", "numero_voie": "8", "arrondissement": "2", "longueur": "5", "gid": "374" }, "geometry": { "type": "Point", "coordinates": [ 4.830188793348119, 45.756082681502534 ] } },
{ "type": "Feature", "properties": { "nom": "COURS BAYARD", "numero_voie": "26", "arrondissement": "2", "longueur": "3", "gid": "375" }, "geometry": { "type": "Point", "coordinates": [ 4.82371764991997, 45.742797561326682 ] } },
{ "type": "Feature", "properties": { "nom": "RUE FRANKLIN", "numero_voie": "51", "arrondissement": "2", "longueur": "5", "gid": "376" }, "geometry": { "type": "Point", "coordinates": [ 4.83120096782581, 45.751906174798677 ] } },
{ "type": "Feature", "properties": { "nom": "AVENUE GENERAL FRERE", "numero_voie": "40", "arrondissement": "8", "longueur": "6", "gid": "377" }, "geometry": { "type": "Point", "coordinates": [ 4.872600650795313, 45.73432065271215 ] } },
{ "type": "Feature", "properties": { "nom": "RUE FEUILLAT", "numero_voie": "44", "arrondissement": "3", "longueur": "3", "gid": "378" }, "geometry": { "type": "Point", "coordinates": [ 4.875548845575211, 45.749415532548454 ] } },
{ "type": "Feature", "properties": { "nom": "RUE TERME", "numero_voie": "31", "arrondissement": "1", "longueur": "15", "gid": "379" }, "geometry": { "type": "Point", "coordinates": [ 4.832144087814279, 45.767891646496885 ] } },
{ "type": "Feature", "properties": { "nom": "RUE WALDECK ROUSSEAU", "numero_voie": "64", "arrondissement": "6", "longueur": "5", "gid": "380" }, "geometry": { "type": "Point", "coordinates": [ 4.858156843325498, 45.764439972851413 ] } },
{ "type": "Feature", "properties": { "nom": "PLACE RONDE", "numero_voie": "49", "arrondissement": "3", "longueur": "3", "gid": "381" }, "geometry": { "type": "Point", "coordinates": [ 4.891221862211482, 45.753610958881609 ] } },
{ "type": "Feature", "properties": { "nom": "RUE JOANNES CARRET", "numero_voie": "27", "arrondissement": "9", "longueur": "3", "gid": "382" }, "geometry": { "type": "Point", "coordinates": [ 4.820112900949979, 45.792919878199996 ] } },
{ "type": "Feature", "properties": { "nom": "RUE SMITH", "numero_voie": "3", "arrondissement": "2", "longueur": "10", "gid": "383" }, "geometry": { "type": "Point", "coordinates": [ 4.825583448834251, 45.746404110417267 ] } },
{ "type": "Feature", "properties": { "nom": "AVENUE GENERAL FRERE", "numero_voie": "43", "arrondissement": "8", "longueur": "6", "gid": "384" }, "geometry": { "type": "Point", "coordinates": [ 4.87250664045497, 45.734387001282961 ] } },
{ "type": "Feature", "properties": { "nom": "RUE BOSSUET", "numero_voie": "35", "arrondissement": "6", "longueur": "5", "gid": "385" }, "geometry": { "type": "Point", "coordinates": [ 4.850092175163466, 45.767821570435366 ] } },
{ "type": "Feature", "properties": { "nom": "RUE VAUBAN", "numero_voie": "10", "arrondissement": "6", "longueur": "3", "gid": "386" }, "geometry": { "type": "Point", "coordinates": [ 4.842874860438044, 45.764783877110617 ] } },
{ "type": "Feature", "properties": { "nom": "RUE DU LIEUTENANT COLONEL PREVOST", "numero_voie": "9", "arrondissement": "6", "longueur": "6", "gid": "387" }, "geometry": { "type": "Point", "coordinates": [ 4.843127883243999, 45.773349496082091 ] } },
{ "type": "Feature", "properties": { "nom": "RUE DU GARET", "numero_voie": "1", "arrondissement": "1", "longueur": "8", "gid": "388" }, "geometry": { "type": "Point", "coordinates": [ 4.836644752527529, 45.767467189137093 ] } },
{ "type": "Feature", "properties": { "nom": "RUE TRAMASSAC", "numero_voie": "1", "arrondissement": "5", "longueur": "5", "gid": "389" }, "geometry": { "type": "Point", "coordinates": [ 4.826050748254797, 45.761897048775111 ] } },
{ "type": "Feature", "properties": { "nom": "RUE TETE D'OR", "numero_voie": "41", "arrondissement": "6", "longueur": "5", "gid": "390" }, "geometry": { "type": "Point", "coordinates": [ 4.852332655588831, 45.769923446544709 ] } },
{ "type": "Feature", "properties": { "nom": "RUE SALOMON REINACH", "numero_voie": "13", "arrondissement": "7", "longueur": "6", "gid": "391" }, "geometry": { "type": "Point", "coordinates": [ 4.839271396154834, 45.752375740462305 ] } },
{ "type": "Feature", "properties": { "nom": "RUE SALOMON REINACH", "numero_voie": "13", "arrondissement": "7", "longueur": "6", "gid": "392" }, "geometry": { "type": "Point", "coordinates": [ 4.83914493767911, 45.75243040574626 ] } },
{ "type": "Feature", "properties": { "nom": "RUE DES TABLES CLAUDIENNES", "numero_voie": "49", "arrondissement": "1", "longueur": "10", "gid": "393" }, "geometry": { "type": "Point", "coordinates": [ 4.833826708040225, 45.77101159600327 ] } },
{ "type": "Feature", "properties": { "nom": "Rue Casimir Prier", "numero_voie": "8A", "arrondissement": "2", "longueur": "5", "gid": "394" }, "geometry": { "type": "Point", "coordinates": [ 4.818410994465586, 45.743554427164646 ] } },
{ "type": "Feature", "properties": { "nom": "Avenue Esquirol", "numero_voie": "14", "arrondissement": "3", "longueur": "10", "gid": "395" }, "geometry": { "type": "Point", "coordinates": [ 4.887797757141797, 45.741681026795995 ] } },
{ "type": "Feature", "properties": { "nom": "Quai Victor Augagneur", "numero_voie": "16", "arrondissement": "3", "longueur": "6", "gid": "396" }, "geometry": { "type": "Point", "coordinates": [ 4.840913215522672, 45.759546856589047 ] } },
{ "type": "Feature", "properties": { "nom": "Grand rue de la Guillotire", "numero_voie": "69", "arrondissement": "7", "longueur": "10", "gid": "397" }, "geometry": { "type": "Point", "coordinates": [ 4.846317853691803, 45.752377942927161 ] } },
{ "type": "Feature", "properties": { "nom": "Place Tabareau", "numero_voie": "14", "arrondissement": "4", "longueur": "11", "gid": "398" }, "geometry": { "type": "Point", "coordinates": [ 4.825474194351271, 45.774673632239001 ] } },
{ "type": "Feature", "properties": { "nom": "Place des Tapis", "numero_voie": "6", "arrondissement": "4", "longueur": "8", "gid": "399" }, "geometry": { "type": "Point", "coordinates": [ 4.829779694577385, 45.774800834162086 ] } },
{ "type": "Feature", "properties": { "nom": "Rue Professeur Grignard", "numero_voie": "66", "arrondissement": "7", "longueur": "10", "gid": "400" }, "geometry": { "type": "Point", "coordinates": [ 4.841653846829969, 45.746055610925772 ] } },
{ "type": "Feature", "properties": { "nom": "Rue Ren Leynaud", "numero_voie": "8", "arrondissement": "1", "longueur": "9", "gid": "401" }, "geometry": { "type": "Point", "coordinates": [ 4.83251475458674, 45.769624610807 ] } },
{ "type": "Feature", "properties": { "nom": "Rue de Montbrillant", "numero_voie": "12", "arrondissement": "3", "longueur": "5", "gid": "402" }, "geometry": { "type": "Point", "coordinates": [ 4.870265319646078, 45.749929052306157 ] } }
]
}
